name,province,district,address,hospital_type,image_url,latitude,longitude,source
Lakecity Hospital and Critical Care Pvt.Ltd,Gandaki,,,,,,,NSSD
Lamjung Hospital,Gandaki,,,,,,,NSSD
Dhaulagiri Zonal Hospital,Gandaki,,,,,,,NSSD
Beni Hospital,Gandaki,,,,,,,NSSD
Syangja District Hospital,Gandaki,,,,,,,NSSD
Parbat District Hospital,Gandaki,,,,,,,NSSD
Gorkha Hospital,Gandaki,,,,,,,NSSD
Damauli Hospital,Gandaki,,,,,,,NSSD
Madhyabindu District Hospital,Gandaki,,,,,,,NSSD
Lumbini Provincial Hospital,Lumbini,,,,,,,NSSD
District Hospital Bardia,Lumbini,,,,,,,NSSD
Rapti Zonal Hospital,Lumbini,,,,,,,NSSD
Siddharthanagar City Hospital,Lumbini,,,,,,,NSSD
Gautam Buddha Community Heart Hospital,Lumbini,,,,,,,NSSD
Bheri Zonal Hospital,Lumbini,,,,,,,NSSD
Crimson Hospital,Lumbini,,,,,,,NSSD
Rapti Sub Regional Hospital,Lumbini,,,,,,,NSSD
Sushil Koirala Prakhar Cancer Hospital,Lumbini,,,,,,,NSSD
Siddhababa Hospital and Research Center,Lumbini,,,,,,,NSSD
R.C. Tharu Memorial City Hospital,Lumbini,,,,,,,NSSD
"Mid-Western Regional Hospital, Surkhet",Karnali,,,,,,,NSSD
Seti Zonal Hospital,Karnali,,,,,,,NSSD
Mahakali Hospital,Karnali,,,,,,,NSSD
Ghodaghodi Hospital Pvt.Ltd,Karnali,,,,,,,NSSD
कोप्ची शहरी स्वास्थ्य केन्द्र,Karnali,Surkhet,,hospital,,28.424368,81.844351,HDX_OSM
"Harati mata, Chamati",Bagmati,Kathmandu,,doctors,,27.717097,85.298538,HDX_OSM
Khowpa Home Health Care Center,Bagmati,Bhaktapur,,clinic,,27.675149,85.437011,HDX_OSM
Damak Red Cross Society,Koshi,Jhapa,,hospital,,26.656579,87.703874,HDX_OSM
Kathmandu Institute of Child Health (KIOCH),Koshi,Jhapa,,hospital,,26.656964,87.704134,HDX_OSM
Kakrebihar Dental Clinic,Karnali,Surkhet,,dentist,,28.791895,81.3891,HDX_OSM
Sagarmatha Dental Clinic,Gandaki,Tanahu,Shuklagandaki Municipality,dentist,,28.055087,84.072596,HDX_OSM
"Community Health Unit, Simta Chaur",Karnali,Surkhet,,clinic,,28.862985,81.451768,HDX_OSM
Dulatthai Basic Health Service Center,Karnali,Surkhet,,clinic,,28.813818,81.372196,HDX_OSM
Hasegaun Basic Health Service Center,Karnali,Surkhet,,clinic,,28.815339,81.476668,HDX_OSM
Baraiche Basic Health Post,Karnali,Surkhet,,clinic,,28.80006,81.409436,HDX_OSM
Babiyachaur Health Post,Karnali,Surkhet,,clinic,,28.796771,81.391645,HDX_OSM
Sambanda Polyclinic and Dygnostic Center,Karnali,Surkhet,,clinic,,28.793662,81.384965,HDX_OSM
Chhapre Health Post,Karnali,Surkhet,,clinic,,28.889953,81.415087,HDX_OSM
"Community Health Unit, Paisara",Karnali,Surkhet,,clinic,,28.866323,81.432394,HDX_OSM
"Community Health Unit, Sanne daha",Karnali,Surkhet,,clinic,,28.839574,81.382882,HDX_OSM
Chature Basic Health Service Center,Karnali,Surkhet,,clinic,,28.811245,81.39608,HDX_OSM
Latikanda Community Health Unit,Karnali,Surkhet,,clinic,,28.84301,81.417191,HDX_OSM
Tokma Basic Health Care Center,Karnali,Surkhet,,clinic,,28.790619,81.414675,HDX_OSM
"Primary Health Post, Salkot",Karnali,Surkhet,,clinic,,28.793203,81.430547,HDX_OSM
Dr Pradeep Neupane house,Bagmati,Chitwan,,doctor,,27.652028,84.422099,HDX_OSM
भालुवाङ अस्पताल,Lumbini,Dang,भालुवाङ,hospital,,27.843592,82.770022,HDX_OSM
Subhalav Dental Clinic,Bagmati,Lalitpur,,dentist,,27.66756,85.322807,HDX_OSM
Ziya Health Care and Diagnostic Center Polyclinic Pathology and Shahjan Pharmacy,Lumbini,Rupandehi,,yes,,27.476557,83.471672,HDX_OSM
Kandu Pharmacy,,,,clinic,,27.476339,83.471917,HDX_OSM
HRL & Clinic,Bagmati,Lalitpur,,clinic,,27.66703,85.324299,HDX_OSM
Ghatgau HP,Karnali,Surkhet,,hospital,,28.757376,81.261873,HDX_OSM
Koiralbas Community Health Service,Karnali,Surkhet,,hospital,,28.910459,81.310773,HDX_OSM
Dhamidanda Basic Health Service Center,Karnali,Surkhet,,clinic,,28.842726,81.304619,HDX_OSM
Kumala Community Health Service,Karnali,Surkhet,,clinic,,28.791876,81.241075,HDX_OSM
लक्ष्मीपुर स्वास्थ्य चौकी,Lumbini,Dang,,hospital,,28.076786,82.315192,HDX_OSM
Mayataal Basic Health Service Center,Karnali,Surkhet,,hospital,,28.840333,81.269903,HDX_OSM
Salma Basic Helth Service Center,Karnali,Surkhet,,hospital,,28.875045,81.33245,HDX_OSM
Gutu Health Post,Karnali,Surkhet,,hospital,,28.846882,81.315188,HDX_OSM
Raga Basic Health Service Center,Karnali,Surkhet,,clinic,,28.784016,81.324309,HDX_OSM
Siddhi Dental Care Pvt.Ltd,Bagmati,Bhaktapur,,dentist,,27.674414,85.371852,HDX_OSM
Health post,Lumbini,Kapilbastu,,clinic,,27.519945,83.167283,HDX_OSM
Medical Hall,Gandaki,Lamjung,,clinic,,28.2311,84.377277,HDX_OSM
Taal Barahi Dental Care Centre,Gandaki,Lamjung,,dentist,,28.23124,84.37739,HDX_OSM
Baspani Health Post,Karnali,Surkhet,,hospital,,28.864806,81.084402,HDX_OSM
Sobhanchaur Community Health Center,Karnali,Surkhet,,hospital,,28.830927,81.191062,HDX_OSM
Siddhartha City Hospital Pvt. Ltd.,Lumbini,Rupandehi,,hospital,,27.490435,83.448827,HDX_OSM
Kanda Health Post,Sudurpashchim,Bajhang,,hospital,,29.697779,81.368116,HDX_OSM
Talkot Hospital,Sudurpashchim,Bajhang,,hospital,,29.621305,81.200907,HDX_OSM
Talagaun Basic Health Service Center,Karnali,Surkhet,,hospital,,28.961466,81.089283,HDX_OSM
Ratu Healthpost Khop Kendra,Karnali,Surkhet,Birendranagar,hospital,,28.645857,81.682612,HDX_OSM
Balaudi Health Post,Sudurpashchim,Bajhang,,hospital,,29.767625,81.279546,HDX_OSM
Dhanras Basic Health Service Center,Karnali,Surkhet,,hospital,,28.933247,81.077168,HDX_OSM
Apson Piya Medical Hall,Gandaki,Lamjung,,clinic,,28.231544,84.377367,HDX_OSM
Betan Health Post,Karnali,Surkhet,,hospital,,28.884895,81.169245,HDX_OSM
Bidushi Medical Hall,Lumbini,Banke,,clinic,,28.055516,81.616137,HDX_OSM
Maha Guthi Polyclinic,Bagmati,Kathmandu,,clinic,,27.717656,85.306133,HDX_OSM
महिला स्वास्थ्य स्वयंसेविका,Lumbini,Dang,,yes,,27.837627,82.628049,HDX_OSM
आधारभुत स्वास्थ्य सेवा केन्द्र,Lumbini,Dang,राप्ती गाउँपालिका दाङ,yes,,27.837977,82.649857,HDX_OSM
महिला स्वास्थ्य स्वयमसेविका,Lumbini,Dang,राप्ती गाउँपालिका दाङ,yes,,27.831962,82.631901,HDX_OSM
Kunpen Tibetan Medical Center,Bagmati,Kathmandu,,centre,,27.721551,85.361393,HDX_OSM
Aadharbhut Health Center,Karnali,Surkhet,Birendranagar,hospital,,28.602349,81.597362,HDX_OSM
Aarogya Pharmacy and Chaudhary Medical,Lumbini,Rupandehi,,clinic,,27.476772,83.470677,HDX_OSM
Vijay Health Clinic,Lumbini,Rupandehi,,clinic,,27.50522,83.353334,HDX_OSM
राप्ती आयुर्वेदिक अस्पताल,Lumbini,Dang,,hospital,,28.16751,82.140536,HDX_OSM
मनमोहन मेमोरियल अस्पताल,Bagmati,Kathmandu,,hospital,,27.717939,85.311244,HDX_OSM
सुब्बा मेडिकल सेन्टर प्रा. लि,Bagmati,Kathmandu,,hospital,,27.73782,85.323041,HDX_OSM
नेपाल डायग्नोस्टिक सेन्टर प्रा. लि.,Bagmati,Kathmandu,,hospital,,27.701058,85.311634,HDX_OSM
आरोग्य स्वस्थ्य सदन,Bagmati,Lalitpur,,hospital,,27.673695,85.31184,HDX_OSM
Community Health Shobha,Karnali,Mugu,,clinic,,29.53006,82.226385,HDX_OSM
Jumlakot Health Post,Karnali,Jumla,,hospital,,29.194757,81.974357,HDX_OSM
Lamabagar birthing center,Karnali,Jumla,,hospital,,29.154288,82.07338,HDX_OSM
Ishwor Health Service,Karnali,Jumla,,clinic,,29.243166,82.105675,HDX_OSM
Private Health Clinic,Karnali,Jumla,,clinic,,29.2257,81.94966,HDX_OSM
Community health unit,Karnali,Jumla,,hospital,,29.252472,82.013444,HDX_OSM
Latikoili Healthpost,Karnali,Surkhet,Birendranagar,hospital,,28.57543,81.606238,HDX_OSM
Karnali Care Hospital,Karnali,Surkhet,Birendranagar,hospital,,28.598384,81.602037,HDX_OSM
Naulapur Healthpost,Karnali,Surkhet,Birendranagar,hospital,,28.591712,81.624639,HDX_OSM
Himani Health Clinic,Karnali,Surkhet,Birendranagar,clinic,,28.598424,81.580011,HDX_OSM
Siddhartha Health Clinic Centre,Lumbini,Rupandehi,,clinic,,27.492245,83.313025,HDX_OSM
Maya Devi Polyclinic,Lumbini,Rupandehi,,clinic,,27.505259,83.352921,HDX_OSM
माता मनकामना पोलिक्लिनिक,Lumbini,Dang,,clinic,,28.188506,82.134056,HDX_OSM
MHP Myalpokhari SHP,Lumbini,Gulmi,,hospital,,28.17043,83.0648,HDX_OSM
MHP Paudhi SHP,Lumbini,Gulmi,,hospital,,28.21747,83.22993,HDX_OSM
MHP Pipaldhara HP,Lumbini,Gulmi,,hospital,,28.08575,83.13937,HDX_OSM
Sijal Pharmacy,Lumbini,Rupandehi,,clinic,,27.519183,83.454507,HDX_OSM
MHP Sirseni SHP,Lumbini,Gulmi,,hospital,,28.18656,83.09407,HDX_OSM
MHP Wagla SHP,Lumbini,Gulmi,,hospital,,28.15858,83.11575,HDX_OSM
Indra Pharmacy  and Health Clinic,Lumbini,Rupandehi,,clinic,,27.518569,83.449991,HDX_OSM
Sairam Homiyo Pharmacy,Lumbini,Rupandehi,,clinic,,27.516386,83.45168,HDX_OSM
Aarogya Hospital,Lumbini,Rupandehi,,hospital,,27.52716,83.455802,HDX_OSM
Bhim Hospital,Lumbini,Rupandehi,,hospital,,27.506159,83.454439,HDX_OSM
Bindhabashini Health Clinic,Lumbini,Rupandehi,,clinic,,27.522071,83.455151,HDX_OSM
Deluxe Pharma,Lumbini,Rupandehi,,clinic,,27.506238,83.453414,HDX_OSM
Sanvi Pharm,Lumbini,Rupandehi,,clinic,,27.516231,83.452489,HDX_OSM
Aashank Medical Hall,Lumbini,Rupandehi,,clinic,,27.516249,83.45222,HDX_OSM
Lumbini Dental Clinic,Lumbini,Rupandehi,,dentist,,27.506014,83.45354,HDX_OSM
Bijaya Health Care Center and Bijaya Pharmacy,Lumbini,Rupandehi,,clinic,,27.503535,83.453788,HDX_OSM
Modern pharmacy,Lumbini,Rupandehi,,clinic,,27.516326,83.452762,HDX_OSM
Hamro Dental Clinic,Lumbini,Rupandehi,,dentist,,27.514163,83.453984,HDX_OSM
NIschal Pharmacy,Lumbini,Rupandehi,,clinic,,27.512603,83.45447,HDX_OSM
Medico Pharma,Lumbini,Rupandehi,,clinic,,27.510342,83.449228,HDX_OSM
Melcham Health Post,Karnali,Humla,,birthing_centre,,29.764653,82.036269,HDX_OSM
Jasmine Aekha Upachar Kendra and Chasma Pasal,Lumbini,Rupandehi,,optometrist,,27.49138,83.306065,HDX_OSM
Basic urban health centerr,Karnali,Surkhet,Lekbeshi,hospital,,28.491962,81.784637,HDX_OSM
Lumbini Diagnostic & Pathology,Lumbini,Rupandehi,,laboratory,,27.518718,83.449542,HDX_OSM
Relief Pathology,Lumbini,Rupandehi,,laboratory,,27.518569,83.450006,HDX_OSM
Ultrasound/Video X-ray,Lumbini,Rupandehi,,laboratory,,27.516303,83.452312,HDX_OSM
Buddha Xray DIgital Sewa,Lumbini,Rupandehi,,yes,,27.506125,83.454552,HDX_OSM
Siddhartha pathology,Lumbini,Rupandehi,,yes,,27.506181,83.454142,HDX_OSM
Rosis Pyathology,Lumbini,Rupandehi,,laboratory,,27.506236,83.4534,HDX_OSM
Rawol Ultrasound Sewa,Lumbini,Rupandehi,,laboratory,,27.506238,83.453409,HDX_OSM
Pashupati Lab,Lumbini,Rupandehi,,laboratory,,27.50627,83.452882,HDX_OSM
Tata Pyathology Lab,Lumbini,Rupandehi,,laboratory,,27.516272,83.452399,HDX_OSM
Saraf Health care and teaching Hosital,Lumbini,Rupandehi,,yes,,27.51722,83.449964,HDX_OSM
Pristine Dental,Lumbini,Rupandehi,,dentist,,27.512097,83.452457,HDX_OSM
Satya Omkar Dental Home,Lumbini,Rupandehi,,dentist,,27.514878,83.453163,HDX_OSM
Medi Max Pharmacy,Lumbini,Rupandehi,,clinic,,27.512155,83.454051,HDX_OSM
Star Dental Clinic,Lumbini,Rupandehi,,dentist,,27.515843,83.453527,HDX_OSM
Buddha Dental Clinic,Lumbini,Rupandehi,,dentist,,27.514613,83.453223,HDX_OSM
Shraddha Pharmacy,Lumbini,Rupandehi,,clinic,,27.514644,83.453225,HDX_OSM
Shivam Clinic,Lumbini,Rupandehi,,clinic,,27.514725,83.453243,HDX_OSM
Everest Dental Clinic,Lumbini,Rupandehi,,dentist,,27.514277,83.453347,HDX_OSM
New Buddha X-Ray Service,Lumbini,Rupandehi,,clinic,,27.516657,83.453629,HDX_OSM
Rupa Medical Hall,Lumbini,Rupandehi,,clinic,,27.512006,83.454669,HDX_OSM
Omkar Pharmacy,Lumbini,Rupandehi,,clinic,,27.516336,83.452989,HDX_OSM
Tansen Dental Clinic,Lumbini,Rupandehi,,dentist,,27.517087,83.453166,HDX_OSM
Medilen Pharmacy and Sarita Health Clinic,Lumbini,Rupandehi,,clinic,,27.50029,83.448536,HDX_OSM
पुरनधारा अस्पताल,Lumbini,Dang,,nurse,,28.209728,82.118138,HDX_OSM
प्रेम स्वास्थ्य क्लिनिक,Lumbini,Dang,,clinic,,28.227015,82.113035,HDX_OSM
milan clinic,Lumbini,Rupandehi,,clinic,,27.504076,83.450218,HDX_OSM
Helthpost Vajneuta,Sudurpashchim,Dadeldhura,,clinic,,29.342323,80.597298,HDX_OSM
Sahashraling Helth Post Rai,Sudurpashchim,Dadeldhura,,clinic,,29.299023,80.643379,HDX_OSM
New Mahendra Medical Hall,Lumbini,Rupandehi,,clinic,,27.506026,83.450538,HDX_OSM
Shikhar Pharmacy,Lumbini,Rupandehi,,clinic,,27.507223,83.441631,HDX_OSM
Bhairawaha Dental Care Centre,Lumbini,Rupandehi,,dentist,,27.516084,83.452983,HDX_OSM
Jagadamba Pharmacy,Lumbini,Rupandehi,,clinic,,27.517598,83.452302,HDX_OSM
Aakris Medical Hall,Lumbini,Rupandehi,,clinic,,27.517924,83.450683,HDX_OSM
Fistula Center,Karnali,Surkhet,,clinic,,28.603832,81.601482,HDX_OSM
Family Health Clinic,Bagmati,Lalitpur,,clinic,,27.675254,85.319287,HDX_OSM
Bal Clinic,Lumbini,Rupandehi,,clinic,,27.504787,83.450522,HDX_OSM
R.K Medical Hall,Lumbini,Rupandehi,,clinic,,27.484159,83.440697,HDX_OSM
"Rajdevi Municipality Health Post, Redcross Tole-9",Madhesh,Rautahat,,clinic,,26.755739,85.321297,HDX_OSM
Folliderm Skin Clinic,Bagmati,Kathmandu,,clinic,,27.723992,85.330393,HDX_OSM
"जन स्वास्थ्य सेवा केन्द्र, सैना",Karnali,Kalikot,,clinic,,29.34899,81.760652,HDX_OSM
ANB Hospital,Karnali,Kalikot,,hospital,,29.302577,81.751438,HDX_OSM
जनस्वास्थ्य सेवा केन्द्र,Karnali,Kalikot,,clinic,,29.302701,81.753263,HDX_OSM
"स्वास्थ्य चौकी, थिर्पु",Karnali,Kalikot,,clinic,,29.301884,81.780061,HDX_OSM
जन स्वास्थ्य सेवा केन्द्र,Karnali,Kalikot,,clinic,,29.35833,81.835461,HDX_OSM
सामुदायिक स्वास्थ्य ईकाई धौलागोह,Karnali,Kalikot,,clinic,,29.355032,81.794577,HDX_OSM
स्वास्थ्य चौकी धौलागोह,Karnali,Kalikot,,clinic,,29.343892,81.775802,HDX_OSM
सामुदायिक स्वास्थ्य ईकाइ बदालकोट,Karnali,Kalikot,,clinic,,29.176112,81.636655,HDX_OSM
आधारभूत स्वास्थ्य इकाइ,Karnali,Kalikot,,clinic,,29.137359,81.613783,HDX_OSM
Sahari Swasthya Sanstha Pothiyahi Tole Amarpatty,Madhesh,Rautahat,,clinic,,26.945763,85.298767,HDX_OSM
Jigadawa Beldhuswa Sawasthya Chauki,Madhesh,Rautahat,,clinic,,26.866053,85.273964,HDX_OSM
Basanpati sawastya Chauki,Madhesh,Rautahat,,clinic,,26.845423,85.230583,HDX_OSM
Adharbhut Swasthya Kendra,Madhesh,Rautahat,,clinic,,26.871569,85.278532,HDX_OSM
Paroha Hospital Laukaha,Madhesh,Rautahat,,clinic,,26.848095,85.237854,HDX_OSM
Narkatiya Sawasth Chauki,Madhesh,Rautahat,,clinic,,26.848759,85.202705,HDX_OSM
Rampur Khap Sawasthya Chauki,Madhesh,Rautahat,,clinic,,26.829472,85.194794,HDX_OSM
"Rajpur Tulsi Health Post, Rajpur Tulsi",Madhesh,Rautahat,,clinic,,26.849386,85.287502,HDX_OSM
"Jetharhiya Health Post, Jethariya",Madhesh,Rautahat,,clinic,,26.867372,85.305064,HDX_OSM
"Jetharhiya Birthing Center, Jetharhiya",Madhesh,Rautahat,,clinic,,26.873411,85.298709,HDX_OSM
"Shivdarsan Central Hospital, Jethariya",Madhesh,Rautahat,,hospital,,26.874631,85.296176,HDX_OSM
"Sagarmatha Terai Hospital, Jethariya",Madhesh,Rautahat,,hospital,,26.871583,85.295436,HDX_OSM
"Pashu Sewa,Pachim Tole",Madhesh,Rautahat,,clinic,,26.825796,85.292331,HDX_OSM
"Katahariya Mahila Tatha Bal Hospital-5,Katahariya Bazaar,Katahariya MP",Madhesh,Rautahat,,clinic,,26.979011,85.240578,HDX_OSM
"Katahariya-9,Health Post, Katahariya MP",Madhesh,Rautahat,,clinic,,26.990881,85.26902,HDX_OSM
"Katahariya-6,Basic Health Post, Katahariya MP",Madhesh,Rautahat,,clinic,,26.960991,85.275764,HDX_OSM
Laxmipur Belbichawa Ayurveda Aushadhalaya,Madhesh,Rautahat,,clinic,,26.759312,85.297699,HDX_OSM
"Community Health Post, Hajminiya Pathai",Madhesh,Rautahat,,clinic,,26.785151,85.308228,HDX_OSM
"Basatpur Ayurveda Ausadhalaya, Basatpur",Madhesh,Rautahat,,clinic,,26.790274,85.308334,HDX_OSM
"Hajminiya Heath Post, Hajminiya Durbar",Madhesh,Rautahat,,clinic,,26.788277,85.301262,HDX_OSM
"Dahri Health Post, Motipur",Madhesh,Rautahat,,clinic,,26.811411,85.301773,HDX_OSM
"Jhunkhunwa Health Post, Bhagwati Pathara",Madhesh,Rautahat,,clinic,,26.797344,85.304268,HDX_OSM
"Basatpur Health Post, Basatpur",Madhesh,Rautahat,,clinic,,26.791998,85.315765,HDX_OSM
"Rajdevi Municipality Health Post, Chandhiya Tole",Madhesh,Rautahat,,clinic,,26.797724,85.317749,HDX_OSM
"Mudwalawa Health Post, Mudwalawa",Madhesh,Rautahat,,clinic,,26.768499,85.302948,HDX_OSM
Uttam Health Care,Madhesh,Rautahat,,clinic,,26.757519,85.277847,HDX_OSM
Aadharbhut Swastha Chauki,Madhesh,Rautahat,,clinic,,26.756887,85.27108,HDX_OSM
Aadharbhut Swastha Sewa Kendra,Madhesh,Rautahat,,clinic,,26.762817,85.279388,HDX_OSM
Aadharbhut Swath Kendra,Madhesh,Rautahat,,clinic,,26.76692,85.281486,HDX_OSM
Gaur Private Hospital,Madhesh,Rautahat,,hospital,,26.764965,85.275016,HDX_OSM
Aadharbhut Swasthya Sewa Kendra,Madhesh,Rautahat,,clinic,,26.775194,85.265709,HDX_OSM
Aadharbhut Swasthya Kendra,Madhesh,Rautahat,,clinic,,26.780788,85.282677,HDX_OSM
"Birthing center, Gaur Health Post",Madhesh,Rautahat,,clinic,,26.77925,85.299257,HDX_OSM
महाबौद्ध स्वास्थ्य केन्द्र,Madhesh,Siraha,,clinic,,26.762769,86.392781,HDX_OSM
सहरी स्वास्थ्य केन्द्र,Madhesh,Siraha,,clinic,,26.805034,86.399397,HDX_OSM
सगरमाथा हेल्थ पोलि क्लिनिक,Madhesh,Siraha,,clinic,,26.760691,86.392661,HDX_OSM
फुलाका स्वास्थ्य केन्द्र,Madhesh,Siraha,,clinic,,26.748414,86.368238,HDX_OSM
आर.के. मेडिसिटि अस्पताल,Madhesh,Siraha,,hospital,,26.770074,86.383418,HDX_OSM
ग्रिन एप्पल स्वास्थ्य केन्द्र,Madhesh,Siraha,,clinic,,26.778839,86.364725,HDX_OSM
जनशक्ति उपचार केन्द्र,Madhesh,Siraha,,clinic,,26.778443,86.365934,HDX_OSM
नारायणपुर अस्पताल,Madhesh,Siraha,,hospital,,26.765483,86.389683,HDX_OSM
श्रमजिवी केयर अस्पताल प्रा.लि,Madhesh,Siraha,,hospital,,26.748521,86.417709,HDX_OSM
स्वस्थ्य चौकी हनुमाननगर,Madhesh,Siraha,,clinic,,26.738225,86.400445,HDX_OSM
Friends Model Hospital,Madhesh,Siraha,,hospital,,26.709824,86.489349,HDX_OSM
Sagarmatha Choudhary Eye Hospital,Madhesh,Siraha,,hospital,,26.708705,86.492229,HDX_OSM
Swastha Chauki Dhorna,Madhesh,Siraha,,clinic,,26.780338,86.47657,HDX_OSM
Sahari Swastha Kendra,Madhesh,Siraha,,clinic,,26.831682,86.487183,HDX_OSM
Swastha Chauki Bhawanipur Kalabanjar,Madhesh,Siraha,,clinic,,26.685493,86.467049,HDX_OSM
Swastha Chauki Gadhiya,Madhesh,Siraha,,clinic,,26.668932,86.481323,HDX_OSM
Swastha Chauki Bhramhan Gorchadi,Madhesh,Siraha,,clinic,,26.696926,86.468498,HDX_OSM
Chherapati Health Post,Madhesh,Siraha,,clinic,,26.677362,86.483444,HDX_OSM
Swastha Chauki Govindpur,Madhesh,Siraha,,clinic,,26.759089,86.449196,HDX_OSM
Rouniyar Janashewa Homeopathic Clinic,Madhesh,Siraha,,clinic,,26.722631,86.48401,HDX_OSM
Swastha Chauki Bhadariya,Madhesh,Siraha,,clinic,,26.754417,86.480392,HDX_OSM
Lahan Cancer Care Center,Madhesh,Siraha,,hospital,,26.719065,86.48024,HDX_OSM
Ram Kumar Sarda Uma Parsad Murarka Ismarak Aspatal,Madhesh,Siraha,,clinic,,26.708832,86.493248,HDX_OSM
Siswani Swastha Chauki,Madhesh,Siraha,,clinic,,26.705143,86.436546,HDX_OSM
Padariya Swastha Chauki Lahan 12,Madhesh,Siraha,,clinic,,26.720989,86.452026,HDX_OSM
Bastipur Swasta Chauki,Madhesh,Siraha,,clinic,,26.748234,86.457191,HDX_OSM
Nagar Swastha Kendra,Madhesh,Siraha,,clinic,,26.707037,86.478943,HDX_OSM
Lahan Polyclinic and Diagonostic Centre,Madhesh,Siraha,,clinic,,26.725992,86.48127,HDX_OSM
स्वास्थचौकी (health post),Lumbini,Nawalparasi,,hospital,,27.751178,84.28261,HDX_OSM
Aurahi Health Post Aurahi,Madhesh,Sarlahi,,clinic,,26.897863,85.533585,HDX_OSM
Health post Birthing Center,Madhesh,Sarlahi,,clinic,,26.888567,85.500366,HDX_OSM
Padaria Health Post,Madhesh,Sarlahi,,clinic,,26.913168,85.503433,HDX_OSM
Health Post and Community Center,Madhesh,Sarlahi,,clinic,,26.903813,85.4894,HDX_OSM
Siktahan Health Post,Lumbini,Rupandehi,,clinic,,27.553257,83.550877,HDX_OSM
Kripa Daignostic Laboratory,Lumbini,Rupandehi,,laboratory,,27.512011,83.454668,HDX_OSM
Shivam Pathology,Lumbini,Rupandehi,,laboratory,,27.514749,83.453243,HDX_OSM
Multistar Reference Path Lab,Lumbini,Rupandehi,,yes,,27.51533,83.453638,HDX_OSM
Buddha Accupuncture Sewa,Lumbini,Rupandehi,,yes,,27.51387,83.454064,HDX_OSM
Care Plus Diagnostics & pathology Lab,Lumbini,Rupandehi,,laboratory,,27.511932,83.45468,HDX_OSM
National Path Lab,Lumbini,Rupandehi,,laboratory,,27.512542,83.454522,HDX_OSM
Cordis Health Care Clinic,Lumbini,Rupandehi,,yes,,27.516638,83.453053,HDX_OSM
Devdaha Swastha Chauki,Lumbini,Rupandehi,,clinic,,27.642412,83.596642,HDX_OSM
नागरिक आरोग्य केन्द्र,Lumbini,Rupandehi,,clinic,,27.652552,83.53875,HDX_OSM
Jaya Health Clinic P.V.T 1 Lalbandhi MP,Madhesh,Sarlahi,,clinic,,27.070732,85.586075,HDX_OSM
Parwanipur Community Health Post 16 Lalbandhi MP,Madhesh,Sarlahi,,clinic,,27.085841,85.723491,HDX_OSM
Oham Dental Clinic P.V.T 7 Lalbandhi MP,Madhesh,Sarlahi,,dentist,,27.053911,85.629982,HDX_OSM
Lalbandhi Aadharbhut Health Care Center 2 Lalbandhi MP,Madhesh,Sarlahi,,clinic,,27.05125,85.586281,HDX_OSM
Jutpani Primary Health Care Center 2 Lalbandhi MP,Madhesh,Sarlahi,,clinic,,27.054762,85.582901,HDX_OSM
Netra Ganj Health Post 1 Lalbandhi MP,Madhesh,Sarlahi,,clinic,,27.065985,85.592827,HDX_OSM
Ravi Dental Clinic 7 Lalbandhi MP,Madhesh,Sarlahi,,dentist,,27.054071,85.629257,HDX_OSM
Bhawani Health Care P.V.T 1 Lalbandhi MP,Madhesh,Sarlahi,,clinic,,27.070501,85.586815,HDX_OSM
Taksas Healthcare Private Clinic 7 Lalbandhi MP,Madhesh,Sarlahi,,clinic,,27.054127,85.631073,HDX_OSM
Basic Health Post,Madhesh,Sarlahi,,clinic,,26.886227,85.510864,HDX_OSM
Basic Health Center,Madhesh,Sarlahi,,clinic,,26.883177,85.495714,HDX_OSM
Nagarik Arogya Service Center Belahi,Madhesh,Sarlahi,,clinic,,26.903643,85.489048,HDX_OSM
Basic Health Unit,Madhesh,Sarlahi,,clinic,,26.893972,85.523216,HDX_OSM
आधार्भुत स्वस्थ्य केन्द्र,Lumbini,Rupandehi,,clinic,,27.633955,83.559929,HDX_OSM
आधारभुत स्वास्थ्य केन्द्र( वार्ड न-९),Lumbini,Rupandehi,,clinic,,27.65612,83.573715,HDX_OSM
शिवनगर आधारभुत स्वास्थ्य सेवा केन्द्र,Lumbini,Rupandehi,,clinic,,27.640735,83.313838,HDX_OSM
Tenuhawa Health Post,Lumbini,Rupandehi,,clinic,,27.490432,83.243417,HDX_OSM
Khudabagar Health post,Lumbini,Rupandehi,,clinic,,27.511977,83.311182,HDX_OSM
Bhagwanpur Health Post,Lumbini,Rupandehi,,clinic,,27.446813,83.263391,HDX_OSM
Aama Primary Health Centre,Lumbini,Rupandehi,,clinic,,27.414573,83.268475,HDX_OSM
Dhiraj Pharmacy,Lumbini,Rupandehi,,clinic,,27.518009,83.332832,HDX_OSM
Grishma Commnity Health Post 17 Lalbandhi MP,Madhesh,Sarlahi,,clinic,,27.034441,85.64772,HDX_OSM
Lalbandi Community Health Care Center 7 Lalbandhi MP,Madhesh,Sarlahi,,clinic,,27.054884,85.628662,HDX_OSM
Aayansh Prathamik Clinic Center,Madhesh,Sarlahi,,clinic,,27.040001,85.603416,HDX_OSM
Jabidi Swasta Chauki 4 Lalbandhi MP,Madhesh,Sarlahi,,clinic,,27.035625,85.61792,HDX_OSM
Nagar Swasthy Shahari Clinic 3 Lalbandhi MP,Madhesh,Sarlahi,,clinic,,27.020685,85.613098,HDX_OSM
Anjali Policlini P.V.T 1 Lalbandhi MP,Madhesh,Sarlahi,,clinic,,27.070513,85.58625,HDX_OSM
Janaki Health Care Center 8 Lalbandhi MP,Madhesh,Sarlahi,,clinic,,27.053053,85.632889,HDX_OSM
Primari Health Clinic 11 Lalbandhi MP,Madhesh,Sarlahi,,clinic,,27.079828,85.641849,HDX_OSM
Gaubal Maitri Hospital 7 Lalbandhi MP,Madhesh,Sarlahi,,hospital,,27.054416,85.629937,HDX_OSM
Narayankhola Health Post 14 Lalbandhi MP,Madhesh,Sarlahi,,clinic,,27.147083,85.700378,HDX_OSM
Sarlahi Health Care Nawalpur 1 Lalbandhi MP,Madhesh,Sarlahi,,clinic,,27.07094,85.58593,HDX_OSM
Gadimai Hospital P.V.T 6 Lalbandhi MP,Madhesh,Sarlahi,,hospital,,27.051674,85.637589,HDX_OSM
Anamika Health Care P.V.T 1 Lalbandhi MP,Madhesh,Sarlahi,,clinic,,27.070187,85.586594,HDX_OSM
तोषि स्वास्थ्य चौकी,Sudurpashchim,Achham,,clinic,,28.987621,81.363396,HDX_OSM
बाटुलासैन स्वास्थ्य चैकि बाटुलासैन,Sudurpashchim,Achham,,clinic,,29.177195,81.427111,HDX_OSM
Geta Swasthye Chauki,Sudurpashchim,Kailali,,hospital,,28.779592,80.555718,HDX_OSM
"Universal College of Medical Sciences Teaching Hospital,Ranigaun",Lumbini,Rupandehi,,clinic,,27.487685,83.447049,HDX_OSM
Universal College of Medical Sciences,Lumbini,Rupandehi,,hospital,,27.489121,83.448667,HDX_OSM
Deurali Health Post,Gandaki,Gorkha,,clinic,,27.939939,84.523507,HDX_OSM
Nareswor Health Post,Gandaki,Gorkha,,clinic,,28.025145,84.630288,HDX_OSM
Kokhe Ale Health Center,Gandaki,Gorkha,,clinic,,28.025545,84.66828,HDX_OSM
"मुडकेचुला गाउँपालिका स्वास्थ्य शाखा, डोल्पा",Karnali,Dolpa,,clinic,,29.05395,82.517576,HDX_OSM
"सर्मी स्वास्थ्य चौकी, डोल्पा",Karnali,Dolpa,,clinic,,29.069238,82.472752,HDX_OSM
"गाडापारी सामुदायिक स्वास्थ्य चौकी, डोल्पा",Karnali,Dolpa,,clinic,,29.081264,82.488134,HDX_OSM
सामुदायिक स्वास्थ्य इकाई,Karnali,Dolpa,,clinic,,28.914097,82.810712,HDX_OSM
"स्वास्थ्य सेवा कार्यालय, दुनई-डोल्पा",Karnali,Dolpa,,clinic,,28.955324,82.892887,HDX_OSM
स्वास्थ्य चौकी कार्यालय परीला डोल्पा,Karnali,Dolpa,,clinic,,28.983399,82.899337,HDX_OSM
Bright Smile Dental Clinic,Bagmati,Kathmandu,,dentist,,27.716132,85.324723,HDX_OSM
Aadharbhut Healthcare,Lumbini,Nawalparasi,,clinic,,27.575588,84.101719,HDX_OSM
Aadharbhut Health Post Center Kudhauli,Lumbini,Nawalparasi,,clinic,,27.657545,84.1735,HDX_OSM
Aadharbhut Health Post,Lumbini,Nawalparasi,,clinic,,27.621431,84.125107,HDX_OSM
Adharbhut Swasthya Sewa Kendra,Lumbini,Nawalparasi,,clinic,,27.626495,84.145409,HDX_OSM
Kumarbarti Health Post,Lumbini,Nawalparasi,,clinic,,27.577982,84.087765,HDX_OSM
Aadharbhut Health Center Dasghare,Lumbini,Nawalparasi,,clinic,,27.664165,84.120219,HDX_OSM
Aadharbhut Health Center Subarna Tole,Lumbini,Nawalparasi,,clinic,,27.634744,84.123649,HDX_OSM
Aadharbhut Health Centre Belchowk,Lumbini,Nawalparasi,,clinic,,27.655895,84.13147,HDX_OSM
खोरमोर सामुदायिक शहरी स्वास्थ्य सेवा केन्द्र शितगङ्गा नगरपालिका-१४ खोरमोर अर्घाखाँची,Lumbini,Rupandehi,,hospital,,27.751823,83.237495,HDX_OSM
मुसिवान स्वास्थ ईकाइ शितगङ्गा नगरपालिका-१३ मुसिवान,Lumbini,Kapilbastu,,hospital,,27.783941,83.132233,HDX_OSM
हर्रे,,Arghakhanchi,,hospital,,27.838987,82.974968,HDX_OSM
सिद्द्धारा स्वास्थ चौकी,,Arghakhanchi,,hospital,,27.857264,82.9729,HDX_OSM
अर्घाखाँचि हस्पिटल प्रालि,,Arghakhanchi,,hospital,,27.977047,83.124077,HDX_OSM
पणेना sth,,Arghakhanchi,,hospital,,27.87003,83.30273,HDX_OSM
सामुदायिक स्वास्थ ईकाइ भर्तापुर,,Arghakhanchi,,hospital,,27.84308,83.21676,HDX_OSM
ह्रराबोट,,Arghakhanchi,,hospital,,27.89691,83.29575,HDX_OSM
Maidan Health post,,Arghakhanchi,,hospital,,27.90137,83.23891,HDX_OSM
Patauti Health post,,Arghakhanchi,,hospital,,27.87941,83.24547,HDX_OSM
पाली स्वास्थ्य चौकी पाणिनी 8,,Arghakhanchi,,hospital,,27.92734,83.22826,HDX_OSM
गोखुङ्गा स्वास्थ्य चौकी मालारानी-९,,Arghakhanchi,,hospital,,28.08786,83.015,HDX_OSM
मरेङ स्वास्थ्य चौकि,,Arghakhanchi,,hospital,,28.05034,83.19129,HDX_OSM
खनदह स्वास्थ चौकी,,Arghakhanchi,,hospital,,28.05882,83.12608,HDX_OSM
अाधारभूत स्वास्थ्य सेवा केन्द्र,Lumbini,Nawalparasi,,hospital,,27.599051,83.659035,HDX_OSM
स्वाठी स्वास्थ्य चाैकी,Lumbini,Nawalparasi,,hospital,,27.567654,83.651871,HDX_OSM
सामुदायिक स्वास्थ्य ईकाइ,Lumbini,Nawalparasi,,hospital,,27.49896,83.67337,HDX_OSM
jagarnathpur prathamik kendra,Lumbini,Nawalparasi,,hospital,,27.468624,83.785652,HDX_OSM
Baidauli health post,Lumbini,Nawalparasi,,hospital,,27.402618,83.771355,HDX_OSM
guthisuryapura health post,Lumbini,Nawalparasi,,hospital,,27.423572,83.789444,HDX_OSM
Kushma Health Post-Kushma,Lumbini,Nawalparasi,,hospital,,27.470152,83.686264,HDX_OSM
Asharbhut swasthe kendra,Lumbini,Nawalparasi,,hospital,,27.446035,83.857819,HDX_OSM
Nepal Pariwar Niyojan Sangh Palhinandan-1Rampurawa,Lumbini,Nawalparasi,,hospital,,27.437119,83.70092,HDX_OSM
स्वास्थ्य चाैकि करेटि,Lumbini,Rolpa,,clinic,,28.27976,82.54335,HDX_OSM
आधारभूत स्वास्थ्य केन्द्र,Lumbini,Rolpa,,clinic,,28.411066,82.383148,HDX_OSM
Adhar Bhut Health Center Kukur Gare,Lumbini,Rolpa,,clinic,,28.403395,82.38298,HDX_OSM
आधारभुत स्वास्थ्य केन्द्र,Lumbini,Rolpa,,clinic,,28.406103,82.479904,HDX_OSM
स्वास्थ्य चौकी तालाबाङ्ग,Lumbini,Rolpa,,clinic,,28.429153,82.484741,HDX_OSM
Samudaik Health Post,Lumbini,Rolpa,,clinic,,28.405434,82.825874,HDX_OSM
Swasthya Chauki Gaam,Lumbini,Rolpa,,clinic,,28.363958,82.85833,HDX_OSM
"Samudayik Swasthya Ikae Kendra , Jelgung Gaam",Lumbini,Rolpa,,clinic,,28.37574,82.8854,HDX_OSM
"Aadharbhut Swasthya Sewa Kendra, Basa Dada",Lumbini,Rolpa,,clinic,,28.3829,82.87686,HDX_OSM
जेल्बाङ स्वाथ्य चौकी,Lumbini,Rolpa,,clinic,,28.379828,82.743988,HDX_OSM
सामुदायिक स्वास्थ्य इकाई भुमिकास्थान-०३थारपाईला,,Arghakhanchi,,hospital,,28.023216,83.05999,HDX_OSM
आधारभुत स्वास्थ्य सेवा केन्द्र भुमिकास्थान-३ सिख्र,,Arghakhanchi,,hospital,,28.024038,83.037521,HDX_OSM
नागरिक आरोग्य सेवा केन्द्र,,Arghakhanchi,,hospital,,27.973381,83.076859,HDX_OSM
देउराली आधारभुत स्वास्थ केन्द्र,,Arghakhanchi,,hospital,,27.897566,83.024483,HDX_OSM
खयरभट्टि शहरी स्वास्थ केन्द्र,Lumbini,Kapilbastu,,hospital,,27.746421,82.929796,HDX_OSM
आधारभुत स्वास्थ केन्द्र,,Arghakhanchi,,hospital,,27.844122,82.787743,HDX_OSM
किमडाडा स्वास्थ चौकी,,Arghakhanchi,,hospital,,27.994572,83.077721,HDX_OSM
डिभर्ना आयुर्वेद औषधालाय,,Arghakhanchi,,hospital,,27.998058,83.152687,HDX_OSM
झडि आधारभुत स्वास्थ केन्द्र,,Arghakhanchi,,hospital,,27.997082,83.153915,HDX_OSM
डिभर्ना स्वास्थ चौकी,,Arghakhanchi,,hospital,,28.011019,83.147255,HDX_OSM
अर्घाखाँची पोलिक्लिनिक,,Arghakhanchi,,hospital,,27.975516,83.126582,HDX_OSM
बाँके ढेाडेनि शहरि स्वास्थ्य इकाई,,Arghakhanchi,,hospital,,27.80596,82.95652,HDX_OSM
अर्घा स्वास्थ्य चैाकि,,Arghakhanchi,,hospital,,28.021589,83.098206,HDX_OSM
गाउँ घर क्लनिक,,Arghakhanchi,,hospital,,27.946615,83.128204,HDX_OSM
रमेश मेडिकल हल,,Arghakhanchi,,hospital,,27.974436,83.126419,HDX_OSM
फुलपाति हंसपुर आधारभूत स्वास्थ्य सेवा केन्द्र,,Arghakhanchi,,hospital,,28.07809,83.0477,HDX_OSM
बागि स्वास्थ्य चैाकि,,Arghakhanchi,,hospital,,28.04107,83.09048,HDX_OSM
आधारभुत स्वास्थ सेवा केन्द्र दुन्दुरुक,,Arghakhanchi,,hospital,,27.952942,83.232918,HDX_OSM
प्राथमिक स्वास्थ केन्द्र बल्कोट,,Arghakhanchi,,hospital,,27.96702,83.24118,HDX_OSM
ठुलापोखरा स्वास्थ चौकी,,Arghakhanchi,,hospital,,28.00839,83.196831,HDX_OSM
केरुङ्गा स्वास्थ्य चौकी,,Arghakhanchi,,hospital,,27.986765,83.22361,HDX_OSM
अर्घातोस स्वास्थ्य चौकि,,Arghakhanchi,,hospital,,28.035463,83.195068,HDX_OSM
भगवति स्वास्थ्य चौकि,,Arghakhanchi,,hospital,,28.040836,83.221855,HDX_OSM
मथुरा आधारभुत स्वस्थ्य ईकाइ स.न.पा.-५ अर्घाखाँची,,Arghakhanchi,,hospital,,27.968597,83.189858,HDX_OSM
sitapur sausty chauki,,Arghakhanchi,,hospital,,27.874874,83.1204,HDX_OSM
प्राथमिक स्वास्थ्य केन्द्र शिनपा-३ठाडा,,Arghakhanchi,,hospital,,27.860899,83.093069,HDX_OSM
धारपाहिला स्वास्थ चौकि,,Arghakhanchi,,hospital,,27.85927,83.039757,HDX_OSM
चाबेनेटा सामुदायिक सहरी स्वास्थ्य केन्द्र शिनपा -११,Lumbini,Dang,,hospital,,27.793085,82.867569,HDX_OSM
somani health post,Lumbini,Nawalparasi,,hospital,,27.444752,83.777817,HDX_OSM
tilkpur health post,Lumbini,Nawalparasi,,hospital,,27.560131,83.733749,HDX_OSM
Harpur Health Post-Palhinandan-2Harpur,Lumbini,Nawalparasi,,hospital,,27.443714,83.69101,HDX_OSM
narsahi helth post,Lumbini,Nawalparasi,,hospital,,27.422311,83.849012,HDX_OSM
sarawal swasthe chauki,Lumbini,Nawalparasi,,hospital,,27.504936,83.729347,HDX_OSM
Aadharbhoot swasthya sewa kendra,Lumbini,Nawalparasi,,hospital,,27.539551,83.675209,HDX_OSM
Thulo khairetwa swathye chauki,Lumbini,Nawalparasi,,hospital,,27.436739,83.7658,HDX_OSM
Janata Clinic Palhinandan-2,Lumbini,Nawalparasi,,hospital,,27.441804,83.69367,HDX_OSM
Germi health post,Lumbini,Nawalparasi,,hospital,,27.458708,83.653427,HDX_OSM
Rampurawa Health Post Palhinandan-1Rampurawa,Lumbini,Nawalparasi,,hospital,,27.435085,83.701286,HDX_OSM
Badachaur Health Post,Lumbini,Rolpa,,clinic,,28.261667,82.7677,HDX_OSM
Pang Swasthya Kemdra,Lumbini,Rolpa,,clinic,,28.278568,82.849197,HDX_OSM
गजुल स्वस्थ्य चौकि,Lumbini,Rolpa,,clinic,,28.294163,82.71064,HDX_OSM
खुग्री स्वास्थ चौकि,Lumbini,Rolpa,,clinic,,28.2003,82.684845,HDX_OSM
खुग्री स्वास्थ चौकी ब्रान्च गाउँ घर किल्निक,Lumbini,Rolpa,,clinic,,28.219416,82.648453,HDX_OSM
गोमनपानी गाउघर किल्निक,Lumbini,Rolpa,,clinic,,28.24387,82.665321,HDX_OSM
ईलाका स्वास्थ्य चौकी,Lumbini,Rolpa,,clinic,,28.206163,82.659645,HDX_OSM
आधार भुत स्वास्थ्य केन्द्र,Lumbini,Rolpa,,clinic,,28.308357,82.718498,HDX_OSM
स्वास्थ्य चाैकि उवा,Lumbini,Rolpa,,clinic,,28.431826,82.803241,HDX_OSM
आधारभूत स्वास्थ्य केन्द्र थवाङ ४ घाेरावाङ,Lumbini,Rolpa,,clinic,,28.465738,82.786217,HDX_OSM
सामुदायिक स्वास्थ्य ईकाइ केन्द्र,Lumbini,Rolpa,,clinic,,28.448311,82.670044,HDX_OSM
Ota Health Post,Lumbini,Rolpa,,clinic,,28.416199,82.437944,HDX_OSM
Rank Health Post,Lumbini,Rolpa,,clinic,,28.473583,82.458077,HDX_OSM
"स्वास्थय चौकी भाबाङ, पाछाबाङ",Lumbini,Rolpa,,clinic,,28.397234,82.54454,HDX_OSM
घर्तिगाउ स्वास्थय चौकी घर्तिगाउँ,Lumbini,Rolpa,,clinic,,28.390041,82.507667,HDX_OSM
Aadarbut Health Center Madi,Lumbini,Rolpa,,clinic,,28.388514,82.454185,HDX_OSM
Samudayak Swasthya Ikai,Lumbini,Rolpa,,clinic,,28.384422,82.483139,HDX_OSM
Phagam Health Post,Lumbini,Rolpa,,clinic,,28.311729,82.732933,HDX_OSM
कुरेली स्वास्थ चौकी,Lumbini,Rolpa,,clinic,,28.474031,82.60022,HDX_OSM
स्वास्थ्य चौकी राङ्कोट,Lumbini,Rolpa,,clinic,,28.493244,82.549782,HDX_OSM
स्वास्थ्या चौकी पाछाबाङ,Lumbini,Rolpa,,clinic,,28.521788,82.518784,HDX_OSM
प्रसुती गृह कार्यालय,Lumbini,Rolpa,,clinic,,28.49909,82.570503,HDX_OSM
राङ्सी स्वास्थ्य चौकी,Lumbini,Rolpa,,clinic,,28.439917,82.545639,HDX_OSM
"सामुदायिक स्वास्थ्य इकाई केन्द्र, ओवाङ",Lumbini,Rolpa,,clinic,,28.456877,82.518822,HDX_OSM
सामुदायीक स्वास्थ्य ईकाइ केन्द्र बागमारा रोल्पा,Lumbini,Rolpa,,clinic,,28.500919,82.53289,HDX_OSM
सामुदायिक स्वास्थ एकाई केन्द्र डाँडा गाउँ रोल्पा,Lumbini,Rolpa,,clinic,,28.456972,82.532585,HDX_OSM
आधारभुत स्वास्थ्य सेवा केन्द्र जवाङ,Lumbini,Rolpa,,clinic,,28.139767,82.586632,HDX_OSM
दुबीडाडा स्वास्थ्य चौकी,Lumbini,Rolpa,,clinic,,28.157612,82.546867,HDX_OSM
मसिना स्वास्थ्य चौकी,Lumbini,Rolpa,,clinic,,28.162754,82.570694,HDX_OSM
स्वास्थ्यचौकि जौलेपोखरी रोल्पा,Lumbini,Rolpa,,clinic,,28.189064,82.593895,HDX_OSM
बर्थिन्ङसेन्टर सैबाङ स्वास्थ्य चौकि,Lumbini,Rolpa,,clinic,,28.189417,82.542541,HDX_OSM
सामुदायिक स्वास्थ्य,Lumbini,Rolpa,,clinic,,28.237799,82.533783,HDX_OSM
Health Post Parsauni,Madhesh,Parsa,,clinic,,27.038336,84.773109,HDX_OSM
Health Post Amarptti,Madhesh,Parsa,,clinic,,27.0107,84.800041,HDX_OSM
Health Post Jhauwa Guthi,Madhesh,Parsa,,clinic,,27.022396,84.806397,HDX_OSM
Samudayik Swasthya Clinic,Madhesh,Parsa,,clinic,,27.06344,84.79705,HDX_OSM
Bahuarwa Bhata Hospital,Madhesh,Parsa,,hospital,,27.055565,84.811695,HDX_OSM
Anjali Health Clinic,Madhesh,Parsa,,clinic,,27.059566,84.793816,HDX_OSM
Bairiya Barta Health Post,Madhesh,Parsa,,clinic,,27.053404,84.778664,HDX_OSM
Motipurdhada Basic Health Center,Lumbini,Kapilbastu,,hospital,,27.686954,83.119331,HDX_OSM
Gajahada health post,Lumbini,Kapilbastu,,hospital,,27.663067,83.171158,HDX_OSM
Seauti adhar bhuit sosthaya kendra,Lumbini,Kapilbastu,,hospital,,27.648535,83.170822,HDX_OSM
Motipur Health Post,Lumbini,Kapilbastu,,hospital,,27.685533,83.138649,HDX_OSM
Laxmanghat aadharbhut health post,Lumbini,Kapilbastu,,hospital,,27.663635,83.120735,HDX_OSM
Hathausha sosata chauki,Lumbini,Kapilbastu,,hospital,,27.614561,83.151016,HDX_OSM
Kopawa health post,Lumbini,Kapilbastu,,hospital,,27.64768,83.123009,HDX_OSM
Laxmipur Kotwali Health Post,Madhesh,Bara,,clinic,,26.925158,85.106567,HDX_OSM
Kotwali Health Post,Madhesh,Bara,,clinic,,26.91892,85.109108,HDX_OSM
B.P. ENT Hospital (Netra Pratisthan),Madhesh,Bara,,hospital,,26.940416,85.155083,HDX_OSM
Inarwamal Health Care,Madhesh,Bara,,clinic,,26.946089,85.15406,HDX_OSM
Chiutaha Health Post,Madhesh,Bara,,clinic,,26.945288,85.132744,HDX_OSM
Barainiya Swashtha Chowki,Madhesh,Bara,,clinic,,26.979864,84.915115,HDX_OSM
Bishrampur Health Post,Madhesh,Bara,,clinic,,26.991354,84.895096,HDX_OSM
Singhasani Health Post,Madhesh,Bara,,clinic,,27.005041,85.174957,HDX_OSM
Piprabasatpur Health Post,Madhesh,Bara,,clinic,,26.992113,85.119652,HDX_OSM
Daurwa Health Post,Madhesh,Bara,,clinic,,26.99646,85.136808,HDX_OSM
Gadahal Health Post,Madhesh,Bara,,clinic,,27.013123,85.109047,HDX_OSM
Terchhabata Health post,Sudurpashchim,Baitadi,,clinic,,29.363276,80.295342,HDX_OSM
Nagarjun Adharbhut Health Service Center Shivanath 1 Doram,Sudurpashchim,Baitadi,,clinic,,29.358704,80.302582,HDX_OSM
Gaushalla Barthing center,Sudurpashchim,Baitadi,,clinic,,29.350269,80.287186,HDX_OSM
नागाजुन स्वास्थ्य चाैकी,Sudurpashchim,Baitadi,,clinic,,29.519026,80.382315,HDX_OSM
दुर्गाभवानी स्वस्थ्यचाैकी,Sudurpashchim,Baitadi,,clinic,,29.55947,80.472733,HDX_OSM
सहरी स्वास्थ केन्द्र द न पा सेरा,Sudurpashchim,Baitadi,,clinic,,29.594126,80.410743,HDX_OSM
Rodidewal Health Post,Sudurpashchim,Baitadi,,clinic,,29.47633,80.352257,HDX_OSM
Mahakali Health Post,Sudurpashchim,Baitadi,,clinic,,29.390024,80.292603,HDX_OSM
Girigada Health Post,Sudurpashchim,Baitadi,,clinic,,29.493805,80.367218,HDX_OSM
Pancheswor Healthpost,Sudurpashchim,Baitadi,,clinic,,29.427836,80.281265,HDX_OSM
Amchaura Health Post,Sudurpashchim,Baitadi,,clinic,,29.44136,80.329285,HDX_OSM
Nawala Nagar Health Center,Sudurpashchim,Baitadi,,hospital,,29.654667,80.7091,HDX_OSM
Sagarmatha Chaudhary Eye Hospital Rajbiraj,Madhesh,Saptari,,hospital,,26.556536,86.746612,HDX_OSM
Dr.Manoj Kumar Chaudhary (Skin Disease/Darmologist),Madhesh,Saptari,,clinic,,26.535563,86.74939,HDX_OSM
Dr. Ranjit Kumar Jha (Physician),Madhesh,Saptari,,clinic,,26.535673,86.74968,HDX_OSM
Dr.Lalan Prasad Rauniyar (Bal Rog Bishesgya),Madhesh,Saptari,,clinic,,26.535381,86.749832,HDX_OSM
Apan Poli Clinic,Madhesh,Saptari,,clinic,,26.535044,86.74823,HDX_OSM
Dr. Murali Prasad Singh (Physician),Madhesh,Saptari,,clinic,,26.535625,86.75003,HDX_OSM
Aashirvad Health Care,Madhesh,Saptari,,clinic,,26.537209,86.756378,HDX_OSM
कँडेल गाउँ स्वास्थ्य चौकी,Sudurpashchim,Bajhang,,clinic,,29.547712,81.081245,HDX_OSM
सुबिधा स्वास्थ्य चौकी,Sudurpashchim,Bajhang,,clinic,,29.53192,81.158,HDX_OSM
मझखोरी सामुदायिक स्वास्थ्य इकाइ,Sudurpashchim,Bajhang,,clinic,,29.581337,81.019676,HDX_OSM
आ स्वा मेलबिसाैना 5,Sudurpashchim,Bajhang,,clinic,,29.602112,81.313911,HDX_OSM
Dhamena H. P.,Sudurpashchim,Bajhang,,clinic,,29.608831,81.268318,HDX_OSM
मेलबिसाैना स्वा चौकी,Sudurpashchim,Bajhang,,clinic,,29.609503,81.307442,HDX_OSM
आधारभुत स्वा से के,Sudurpashchim,Bajhang,,clinic,,29.595724,81.355583,HDX_OSM
दातोला स्वा चौकी,Sudurpashchim,Bajhang,,clinic,,29.602364,81.346558,HDX_OSM
आ स्वा के,Sudurpashchim,Bajhang,,clinic,,29.618887,81.298691,HDX_OSM
सामुदायक स्वास्थ्य इकाई केन्द्र,Lumbini,Rolpa,,clinic,,28.323523,82.820374,HDX_OSM
स्युरी स्वास्थ्य चौकी सुन्छहरी रोल्पा,Lumbini,Rolpa,,clinic,,28.354631,82.812958,HDX_OSM
धवाङ् स्वास्थ्य चौकि,Lumbini,Rolpa,,clinic,,28.327951,82.666168,HDX_OSM
खुमेल स्वास्थ्य चौकि,Lumbini,Rolpa,,clinic,,28.278589,82.691544,HDX_OSM
रोल्पा पोलि क्लिनिक,Lumbini,Rolpa,,clinic,,28.305063,82.637794,HDX_OSM
गाउँघर क्लिनिक,Lumbini,Rolpa,,clinic,,28.360113,82.620583,HDX_OSM
कोतगाउ स्वास्थ्य चौकि,Lumbini,Rolpa,,clinic,,28.336546,82.578171,HDX_OSM
जनकोत स्वास्थ्य चौकि,Lumbini,Rolpa,,clinic,,28.362768,82.5914,HDX_OSM
Buddhanagar Sawastha Sanstha,Madhesh,Parsa,,clinic,,27.320377,84.653259,HDX_OSM
"Gauro Prathmik Upachar Kendra, Hulaki Rajmarg",Madhesh,Parsa,,clinic,,27.255558,84.677628,HDX_OSM
Gauro Medical,Madhesh,Parsa,,clinic,,27.267168,84.684456,HDX_OSM
Nirmal Basti Healthpost,Madhesh,Parsa,,clinic,,27.277542,84.677345,HDX_OSM
"Thori-3, New Jyoti Clinic, Thori RM",Madhesh,Parsa,,clinic,,27.305082,84.65374,HDX_OSM
"Jagarnathpur-1, Pidari Guthi Health Post, Jagarnathpur RMP",Madhesh,Parsa,,clinic,,27.158379,84.698837,HDX_OSM
"Jagarnathpur-3, Bijbaniya Health Post, Jagarnathpur RMP",Madhesh,Parsa,,clinic,,27.151819,84.709854,HDX_OSM
"Jagarnathpur-4, Health Post, Jagarnathpur RMP",Madhesh,Parsa,,clinic,,27.141458,84.720756,HDX_OSM
"Jagarnathpur-5, Health Post, Jagarnathpur RMP",Madhesh,Parsa,,clinic,,27.116985,84.737862,HDX_OSM
"Jagarnathpur-6 Health Post, Jagarnathpur RMP",Madhesh,Parsa,,clinic,,27.126526,84.750173,HDX_OSM
Pacharukhi Health Post 5 Parshagadi MP,Madhesh,Parsa,,clinic,,27.122768,84.866165,HDX_OSM
Shahi Clinic,Madhesh,Parsa,,clinic,,27.161543,84.895312,HDX_OSM
Chaurasiya Poli Clinical 3 Parsagadhi MP,Madhesh,Parsa,,clinic,,27.159687,84.895882,HDX_OSM
Pande Health Clinical 3 Parsagadhi MP,Madhesh,Parsa,,clinic,,27.161051,84.895721,HDX_OSM
Ram Health Clinical 3 Parshagadhi MP,Madhesh,Parsa,,clinic,,27.161203,84.894089,HDX_OSM
Jokhu Health Clinical 3 Parsagadhi MP,Madhesh,Parsa,,clinic,,27.161403,84.895462,HDX_OSM
Harapur Health Post 8 Parsagadhi MP,Madhesh,Parsa,,clinic,,27.147625,84.879555,HDX_OSM
Rajeshwari Health Clinic 1 Parsagadhi MP,Madhesh,Parsa,,clinic,,27.177904,84.866409,HDX_OSM
Punam Health Clinic 1 Parsagadhi MP,Madhesh,Parsa,,clinic,,27.179045,84.864479,HDX_OSM
Bagbana Health Post 2 Parsagadhi MP,Madhesh,Parsa,,clinic,,27.172317,84.876633,HDX_OSM
Biruwa Guthi Health Post 4 Parsagadi MP,Madhesh,Parsa,,clinic,,27.149118,84.896477,HDX_OSM
Bagewa Health Post,Madhesh,Bara,,clinic,,27.08495,85.176735,HDX_OSM
Prasauna Health Post,Madhesh,Bara,,clinic,,27.080036,85.119942,HDX_OSM
Juawa Health Post,Madhesh,Bara,,clinic,,27.091721,85.141543,HDX_OSM
Sapahi Health Post,Madhesh,Bara,,clinic,,27.084246,85.152779,HDX_OSM
Kolhabi Primary Health Post,Madhesh,Bara,,clinic,,27.076693,85.18102,HDX_OSM
Bachhanpurwa Health Post,Madhesh,Bara,,clinic,,27.037447,85.159554,HDX_OSM
UP Swastha Chauki,Madhesh,Bara,,clinic,,26.990927,84.924164,HDX_OSM
Pheta Helth Post,Madhesh,Bara,,clinic,,26.998093,84.93763,HDX_OSM
Bhaluhi Bharwaliya Health Post,Madhesh,Bara,,clinic,,27.016292,84.935467,HDX_OSM
Shreepur Adharbhut Health Center,Sudurpashchim,Baitadi,,clinic,,29.382284,80.316292,HDX_OSM
Udayadev Health post Shivanath 4 Baitadi,Sudurpashchim,Baitadi,,clinic,,29.379129,80.367912,HDX_OSM
कैलपाल स्वास्थ्य चौकि,Sudurpashchim,Baitadi,,clinic,,29.411175,80.498547,HDX_OSM
बशन्तपुर स्वास्थ्यचौकी बैतडी,Sudurpashchim,Baitadi,,clinic,,29.47801,80.500537,HDX_OSM
प्रसुती केन्द्,Sudurpashchim,Baitadi,,clinic,,29.427787,80.521803,HDX_OSM
छतरा स्वास्थ्य चाैकी,Sudurpashchim,Baitadi,,clinic,,29.465913,80.54903,HDX_OSM
सिद्धपुर स्वास्थ्य चाैकी,Sudurpashchim,Baitadi,,clinic,,29.415932,80.652074,HDX_OSM
प्थमिक स्वस्थ केन्द्र पाटन,Sudurpashchim,Baitadi,,clinic,,29.463101,80.550024,HDX_OSM
सिलगां स्वास्थ्य चाैकी,Sudurpashchim,Baitadi,,clinic,,29.441137,80.559737,HDX_OSM
भुमेश्वर सिददेश्वर स्वास्थ्य चाैकी,Sudurpashchim,Baitadi,,clinic,,29.482258,80.531293,HDX_OSM
"सरैया स्वास्थ्य चौकी,4बझाङ",Sudurpashchim,Bajhang,,clinic,,29.536275,81.197428,HDX_OSM
सिद्दमना सहरि स्वास्थ्य ईकाई केन्द्र,Sudurpashchim,Bajhang,,clinic,,29.620593,81.18833,HDX_OSM
लेख गाउँ स्वास्थ्य चौकी बझाङ,Sudurpashchim,Bajhang,,clinic,,29.548498,81.020737,HDX_OSM
थलरा स्वास्थ्य चौकी,Sudurpashchim,Bajhang,,clinic,,29.569876,81.072098,HDX_OSM
झाउटा स्वास्थ्य चौकी,Sudurpashchim,Bajhang,,clinic,,29.512978,81.066124,HDX_OSM
सामुदायिक स्वास्थ इकाइ चेपाङ डमार,Karnali,Surkhet,,clinic,,28.715064,81.416392,HDX_OSM
आगृगाउ स्वास्थ्य चौकी,Karnali,Surkhet,,clinic,,28.584862,81.958374,HDX_OSM
दोधारा प्राथमिक स्वास्थ्य केन्द्र,Sudurpashchim,Kanchanpur,,hospital,,28.889643,80.089668,HDX_OSM
"नगर स्वास्थ्य केन्द्र, पुर्णागिरी टोल",Sudurpashchim,Kanchanpur,,clinic,,28.90941,80.06192,HDX_OSM
तरंगा स्वास्थ्य चौकी,Karnali,Surkhet,,clinic,,28.670543,81.438835,HDX_OSM
पग्मा स्वास्थ्य इकाई,Karnali,Surkhet,,clinic,,28.610791,81.48642,HDX_OSM
आधारतभू स्वास्थ्य सेवा केन्द्र,Karnali,Surkhet,,clinic,,28.446888,81.803749,HDX_OSM
"सामदायिक स्वास्थ्य ईकाई, घोरेटा, बाख्रक",Karnali,Surkhet,,clinic,,28.625294,82.013321,HDX_OSM
"सामदायिक स्वास्थ्य ईकाई, आली",Karnali,Surkhet,,clinic,,28.537828,81.956421,HDX_OSM
"सामदायिक स्वास्थ्य ईकाई, खनेटा",Karnali,Surkhet,,clinic,,28.643019,81.909645,HDX_OSM
खजुरा पोलिक्लिनिक,Lumbini,Banke,,clinic,,28.126087,81.575028,HDX_OSM
श्री भैरव प्रसाद गण सर्पदश उपचार केन्द्र,Lumbini,Banke,,clinic,,28.095101,81.666599,HDX_OSM
आधारभुत स्वास्थ सेवा केन्द्र,Lumbini,Banke,,clinic,,28.059054,81.626163,HDX_OSM
काेहाेलपुर हेल्थ केयर प्रा.लि.,Lumbini,Banke,,clinic,,28.057945,81.617496,HDX_OSM
कान्ति आराेग्य अस्पताल,Lumbini,Banke,,hospital,,28.065329,81.624897,HDX_OSM
लायन्स डेन्टल अस्पताल,Lumbini,Banke,,dentist,,28.073559,81.622753,HDX_OSM
सराेजनि अस्पताल,Lumbini,Banke,,hospital,,28.097199,81.662884,HDX_OSM
आ धारभु स्वास्थ्य केन्द्र,Lumbini,Banke,,clinic,,28.044865,81.624447,HDX_OSM
नगर स्वास्थ्य केन्द्र,Lumbini,Banke,,clinic,,28.060879,81.622692,HDX_OSM
स्वास्थ्य चाैकि पिप्रहवा,Lumbini,Banke,,clinic,,28.018439,81.616707,HDX_OSM
आखा अस्पताल,Lumbini,Banke,,hospital,,28.039459,81.612514,HDX_OSM
हरपल होलिस्टिक होम केयर सेन्टर,Lumbini,Banke,,clinic,,28.061032,81.615116,HDX_OSM
Yasoda hospital,Lumbini,Banke,,hospital,,28.050103,81.618595,HDX_OSM
चौधरी सरकार बक्स पोलिक्लिनिक एण्ड डाइग्निष्टिक प्रालि,Lumbini,Banke,,clinic,,28.050795,81.618404,HDX_OSM
"आधारभूत स्वास्थ्य केन्द्र, बाबाथान टोल",Sudurpashchim,Kanchanpur,,clinic,,28.869371,80.080734,HDX_OSM
"आधारभुत स्वास्थ्य एकाई, बिष्ट टोल",Sudurpashchim,Kanchanpur,,clinic,,28.890997,80.074799,HDX_OSM
Animal Hospital,Karnali,Kalikot,,hospital,,29.242476,81.607745,HDX_OSM
"लेखगाँउ स्वास्थ्य चौकी, फिनिकाँडा",Karnali,Surkhet,,clinic,,28.654812,81.564705,HDX_OSM
"आधारभूत स्वास्थ्य सेवा केन्द्र, सलैना",Karnali,Surkhet,,clinic,,28.65888,81.547226,HDX_OSM
"आधारभूत स्वास्थ्य सेवा केन्द्र, तेलपानी",Karnali,Surkhet,,clinic,,28.563576,81.442135,HDX_OSM
भेरिगंगा नगरपालिका आधारभुत स्वास्थ्य केन्द्र,Karnali,Surkhet,,clinic,,28.49917,81.717812,HDX_OSM
रामघाट स्वास्थ्य चौकी,Karnali,Surkhet,,clinic,,28.479715,81.74366,HDX_OSM
डाँडाखली स्वास्थ्य चौकी,Karnali,Surkhet,,clinic,,28.507465,81.933159,HDX_OSM
खानीखोला स्वास्थ्य चौकी,Karnali,Surkhet,,clinic,,28.539587,81.89904,HDX_OSM
नन्द्रागाउ आधारभुत स्वास्थ सेवा केन्द्र,Lumbini,Dang,,clinic,,28.114611,82.225914,HDX_OSM
खैरापुर स्वास्थ्य चौकी,Lumbini,Bardiya,,clinic,,28.241705,81.304855,HDX_OSM
आधारभुत स्वास्थ्य केन्द्र चौगुर्जी,Lumbini,Bardiya,,clinic,,28.208979,81.330948,HDX_OSM
Khajana Polyclinic,Bagmati,Kathmandu,,clinic,,27.705707,85.348466,HDX_OSM
नागरिक पोलिक्लिनिक सुमेरु फार्मेसि,Lumbini,Banke,,clinic,,28.19533,81.687523,HDX_OSM
शहरि स्वास्थ केन्द्र,Lumbini,Banke,,clinic,,28.140291,81.687035,HDX_OSM
आधारभुत स्वास्थ चौकी,Lumbini,Banke,,clinic,,28.15336,81.669395,HDX_OSM
सिकलसेल एनेमिया ल्यब,Lumbini,Banke,,clinic,,28.199461,81.655807,HDX_OSM
बेलहरी स्वास्थ चौकि,Lumbini,Banke,,clinic,,28.111235,81.631798,HDX_OSM
नेपालगन्ज शिक्षण अस्पताल,Lumbini,Banke,,hospital,,28.059529,81.61771,HDX_OSM
भिजन आखा अस्पताल,Lumbini,Banke,,hospital,,28.059115,81.618109,HDX_OSM
मध्य पश्चिचम क्षेत्रीय प्रहरी अस्पताल,Lumbini,Banke,,hospital,,28.078698,81.642696,HDX_OSM
लाइफ लाइन जनरल हस्पिटल प्रा.लि,Lumbini,Banke,,hospital,,28.054951,81.622143,HDX_OSM
शहरि स्वास्थ्य केन्द्र,Lumbini,Banke,,clinic,,28.060896,81.640453,HDX_OSM
सहरि स्वास्थ्य केन्द्र,Lumbini,Banke,,clinic,,28.072584,81.625492,HDX_OSM
Manikapur health post,Lumbini,Banke,,clinic,,28.106959,81.662296,HDX_OSM
नेपालगन्ज पोलीक्लीनीक डाइग्नोसीस सेन्टर प्रा ली,Lumbini,Banke,,clinic,,28.05466,81.613874,HDX_OSM
MILITARY HOSPITAL NEPALGUNJ,Lumbini,Banke,,hospital,,28.095026,81.666553,HDX_OSM
मिड वेस्टर्न आखा अस्पताल,Lumbini,Banke,,hospital,,28.039417,81.612774,HDX_OSM
खास कारकाँदो स्वास्थ्य चौकी,Lumbini,Banke,,clinic,,28.086048,81.64265,HDX_OSM
घोरेटा स्वास्थ्य चौकी,Karnali,Surkhet,,clinic,,28.630701,81.957497,HDX_OSM
काप्रिचौर स्वास्थ्य चौकी,Karnali,Surkhet,,clinic,,28.507832,81.972397,HDX_OSM
"सामदायिक स्वास्थ्य ईकाई, बैसपानी",Karnali,Surkhet,,clinic,,28.463993,81.961037,HDX_OSM
बडे पिपल आयुर्वेदिक औषधालय,Karnali,Surkhet,,clinic,,28.524061,82.019264,HDX_OSM
आधारभुत स्वास्थ्य चौकी,Lumbini,Bardiya,,clinic,,28.20229,81.345123,HDX_OSM
मोहम्मदपुर स्वास्थ्य चौकी,Lumbini,Bardiya,,clinic,,28.192995,81.387658,HDX_OSM
आधारभुत स्वास्थय केन्द्र कटटि,Lumbini,Bardiya,,clinic,,28.215712,81.308166,HDX_OSM
अन्जना स्वास्थ्य किलनिक,Lumbini,Bardiya,,clinic,,28.214363,81.337982,HDX_OSM
शिवगङ्गा आँखा उपचार केन्द्र,Lumbini,Bardiya,,hospital,,28.202486,81.341972,HDX_OSM
नगर स्वास्थ्य केन्द्र कालाबन्जार रतनापुर,Lumbini,Bardiya,,clinic,,28.148067,81.348602,HDX_OSM
नगर स्वास्थ्य केन्द्र पन्डितपुर,Lumbini,Bardiya,,clinic,,28.258751,81.340286,HDX_OSM
Chatar Health Clinic,Lumbini,Banke,,clinic,,28.191299,81.686005,HDX_OSM
आधारभुत स्वास्थ चौकि,Lumbini,Banke,,clinic,,28.211735,81.687836,HDX_OSM
शम्शेरगन्ज स्वास्थ चौकि,Lumbini,Banke,,clinic,,28.159767,81.662109,HDX_OSM
कोहलपुर आयुर्वेदिक औषधालय,Lumbini,Banke,,clinic,,28.189909,81.687889,HDX_OSM
अस्थायी कोभिड अस्पताल,Lumbini,Banke,,hospital,,28.202135,81.681914,HDX_OSM
टिटिहिरिया स्वास्थ्य चौकि,Lumbini,Banke,,clinic,,28.185492,81.553154,HDX_OSM
प्रार्थमिक स्वास्थ्य केन्द्र,Lumbini,Banke,,clinic,,28.206251,81.629684,HDX_OSM
चिसापानी स्वास्थ्य चौकी,Lumbini,Bardiya,,clinic,,28.278774,81.659569,HDX_OSM
आधारभुत स्वास्थ्य सस्था,Lumbini,Banke,,clinic,,28.245597,81.640991,HDX_OSM
थपुवा आयुर्वेदिक अस्पताल,Lumbini,Banke,,hospital,,28.194237,81.577843,HDX_OSM
राधापुर स्वास्थ्य चौकी,Lumbini,Banke,,clinic,,28.071665,81.528259,HDX_OSM
सितापुर स्वास्थ चौकी खजुरा,Lumbini,Banke,,clinic,,28.091867,81.542793,HDX_OSM
रनियापुर स्वास्थ्य चौकी,Lumbini,Banke,,clinic,,28.153461,81.57476,HDX_OSM
सोनपुर स्वास्थ्य चौकी,Lumbini,Banke,,clinic,,28.145052,81.541,HDX_OSM
सेन्टल सिटि हस्पिटल,Lumbini,Banke,,hospital,,28.058378,81.617687,HDX_OSM
जनता सेवा हस्पिटल प्रा.लि,Lumbini,Banke,,hospital,,28.05922,81.639522,HDX_OSM
सहरि स्वास्थ केन्द,Lumbini,Banke,,clinic,,28.072727,81.625492,HDX_OSM
Care City Hospital,Lumbini,Banke,,hospital,,28.084652,81.646129,HDX_OSM
आ धारभुत स्वास्थ केन्द्र,Lumbini,Banke,,clinic,,28.057404,81.627269,HDX_OSM
नेपालगन्ज स्बासथ्य,Lumbini,Banke,,clinic,,28.065392,81.61533,HDX_OSM
आर एल आइ हेल्थ केयर एण्ड अ्प्टिकल सेन्टर,Lumbini,Banke,,clinic,,28.035469,81.610546,HDX_OSM
बासुदेवपुर स्वास्थ चाैकि,Lumbini,Banke,,clinic,,28.071022,81.662693,HDX_OSM
कृपा हस्पिटल,Lumbini,Banke,,hospital,,28.049544,81.61401,HDX_OSM
स्वस्थ्यचाैकि सेरा,Sudurpashchim,Achham,,clinic,,29.061496,81.303672,HDX_OSM
खास कुश्मा स्वास्थ्य चौकी कुसुम,Lumbini,Banke,,clinic,,28.021671,82.067978,HDX_OSM
बिनौना स्वास्थ्य चौकी,Lumbini,Banke,,clinic,,28.050604,81.844093,HDX_OSM
बागेश्वरी हेल्थ केयर,Lumbini,Banke,,clinic,,28.120361,81.804558,HDX_OSM
आधारभुत स्वास्थ्य चोकी,Lumbini,Banke,,clinic,,28.116619,81.800652,HDX_OSM
महादेवपुरी स्वास्थ्य चौकी,Lumbini,Banke,,clinic,,28.158205,81.760681,HDX_OSM
पुरैना स्वास्थ्य चाैकि,Lumbini,Banke,,clinic,,28.054102,81.650432,HDX_OSM
उदयपुर स्वास्थ्य चाैकि,Lumbini,Banke,,clinic,,28.03711,81.645504,HDX_OSM
अपांग बाल अस्पताल,Lumbini,Banke,,hospital,,28.080403,81.641926,HDX_OSM
शहरि स्वास्थ प्रवद्न केन्द्र,Lumbini,Banke,,clinic,,28.066429,81.633831,HDX_OSM
जीवन रक्षा हाइटेक इग्नोष्टिक सेन्टर प्रालि,Lumbini,Banke,,clinic,,28.053912,81.616985,HDX_OSM
चाल्सा स्वाथ्य चौकि,Sudurpashchim,Achham,,clinic,,29.063947,81.372503,HDX_OSM
कचनापुर स्वास्थ्य चौकी,Lumbini,Banke,,clinic,,28.069067,81.861336,HDX_OSM
चेनपुर स्वास्थ्य चौकी,Bagmati,Chitwan,,clinic,,27.635082,84.563133,HDX_OSM
"आधारभुत स्वास्थ्य चौकी, कठार बजार",Bagmati,Chitwan,,clinic,,27.588179,84.602402,HDX_OSM
"आधारभुत स्वास्थ्य केन्द्र, पिठरानी",Bagmati,Chitwan,,clinic,,27.568624,84.605629,HDX_OSM
Kathmandu Pathlab and Diagnostic Centre Pvt. Ltd.,Bagmati,Kathmandu,,laboratory,,27.716617,85.32475,HDX_OSM
Gonarpura Swastha Chowki,Madhesh,Mahottari,,clinic,,26.72637,85.805534,HDX_OSM
Aadharbhut Sawasth Sewa Kendra,Madhesh,Mahottari,,clinic,,26.729759,85.806915,HDX_OSM
"Matihani Ayurveda Aushadhalaya, Prikranama Gachhi",Madhesh,Mahottari,,clinic,,26.611122,85.842537,HDX_OSM
Primary Health Post Gachi Tole,Madhesh,Mahottari,,clinic,,26.801159,85.850311,HDX_OSM
Saikher Das Health Clinic,Madhesh,Mahottari,,clinic,,26.679029,85.842956,HDX_OSM
"Simardahi Health Post, Simardahi",Madhesh,Mahottari,,clinic,,26.639225,85.835548,HDX_OSM
Khayarmara Swasthya Chauki,Madhesh,Mahottari,,clinic,,27.06691,85.799294,HDX_OSM
Maithan Swasthya Chauki,Madhesh,Mahottari,,clinic,,27.043659,85.866921,HDX_OSM
Bardibas Janasewa Hospital,Madhesh,Mahottari,,clinic,,27.006428,85.906227,HDX_OSM
Gauridanda Dental Hospital,Madhesh,Mahottari,,dentist,,26.997806,85.902496,HDX_OSM
Balmaitri Polyclinic,Madhesh,Mahottari,,hospital,,26.992493,85.896187,HDX_OSM
Pinnacle Hospital,Madhesh,Mahottari,,hospital,,26.990255,85.894157,HDX_OSM
City Care Hospital Health and Diagnostic Center,Madhesh,Mahottari,,clinic,,26.991074,85.89521,HDX_OSM
Bardibas Health Clinic,Madhesh,Mahottari,,hospital,,26.990084,85.895012,HDX_OSM
Aadharbhut Swasth Kendra Jhinga Asthan,Madhesh,Mahottari,,clinic,,26.762182,85.783386,HDX_OSM
Reyan medical hall,Bagmati,Kathmandu,,clinic,,27.67818,85.273414,HDX_OSM
bithuwa health center,Lumbini,Kapilbastu,,clinic,,27.487345,83.195822,HDX_OSM
नन्दनगर स्वास्थ्य चाैकी,Lumbini,Kapilbastu,,clinic,,27.549407,83.194904,HDX_OSM
पतरिया स्वास्थ्य चाैकी,Lumbini,Kapilbastu,,clinic,,27.574023,83.177051,HDX_OSM
लबनी स्वास्थ्य चौकि,Lumbini,Kapilbastu,,clinic,,27.508147,83.207063,HDX_OSM
हथिहवा स्वास्थ्य चाैकी,Lumbini,Kapilbastu,,clinic,,27.508426,83.203254,HDX_OSM
Jawabhari helth post,Lumbini,Kapilbastu,,clinic,,27.589441,82.852889,HDX_OSM
Chanai healthpost,Lumbini,Kapilbastu,,clinic,,27.642621,82.894635,HDX_OSM
पकडी स्वास्थ्य चौकी,Lumbini,Kapilbastu,,clinic,,27.520132,83.15242,HDX_OSM
डुमरा स्वास्थ केन्द्र,Lumbini,Kapilbastu,,clinic,,27.531126,83.126251,HDX_OSM
Fulika health post,Lumbini,Kapilbastu,,clinic,,27.57555,83.142158,HDX_OSM
Barai pur swasthya chauki,Lumbini,Kapilbastu,,clinic,,27.554972,82.93457,HDX_OSM
Uday pur swasthya chauki,Lumbini,Kapilbastu,,clinic,,27.564463,82.896881,HDX_OSM
Balramawa swasthya chauki,Lumbini,Kapilbastu,,clinic,,27.587143,82.964279,HDX_OSM
Maharaj prathmik swasthya kendra,Lumbini,Kapilbastu,,clinic,,27.57119,82.954521,HDX_OSM
Buddham policlinic pvt,Lumbini,Kapilbastu,,clinic,,27.570547,82.952004,HDX_OSM
Sirsihawa swastha chauki,Lumbini,Kapilbastu,,clinic,,27.508317,82.767888,HDX_OSM
Bhalwari swasthya chauki,Lumbini,Kapilbastu,,clinic,,27.548094,82.887237,HDX_OSM
Bhagwan pur swasthya chauki,Lumbini,Kapilbastu,,clinic,,27.535889,82.76342,HDX_OSM
Purushottampur health post,Lumbini,Kapilbastu,,clinic,,27.516861,82.843674,HDX_OSM
Krisnanagar Swosth Chauki,Lumbini,Kapilbastu,,clinic,,27.512297,82.795171,HDX_OSM
अजिगर स्वास्थ्य चौकी,Lumbini,Kapilbastu,,clinic,,27.540828,82.88805,HDX_OSM
भिल्मी स्वास्थ्य चौकी,Lumbini,Kapilbastu,,clinic,,27.508516,82.859128,HDX_OSM
Shivraj Aspatal,Lumbini,Kapilbastu,,clinic,,27.545313,82.841509,HDX_OSM
shivanagar swasth chauki,Lumbini,Kapilbastu,,clinic,,27.516134,82.804589,HDX_OSM
sahari swasth clinic manikura,Lumbini,Kapilbastu,,clinic,,27.524098,82.807391,HDX_OSM
धरापानीया स्वास्थ्य चाैकी,Lumbini,Kapilbastu,,clinic,,27.5511,83.089096,HDX_OSM
Tilaurakot Health Post,Lumbini,Kapilbastu,,clinic,,27.582121,83.073303,HDX_OSM
Niglihawa Healthpost,Lumbini,Kapilbastu,,clinic,,27.61467,83.096634,HDX_OSM
हरिहरपुर स्वास्थ्य चौकी,Lumbini,Kapilbastu,,clinic,,27.626534,82.970283,HDX_OSM
मानपुर स्वास्थ्य चौकी 7 बुद्धभूमि,Lumbini,Kapilbastu,,clinic,,27.602947,82.931152,HDX_OSM
शहरी स्वास्थ्य क्लिनिक भेलाई 1 बुध्दभुमी कपिलवस्तु,Lumbini,Kapilbastu,,clinic,,27.708,83.037758,HDX_OSM
बुड्ढी स्वास्थ्य चाैकी,Lumbini,Kapilbastu,,clinic,,27.648809,83.006867,HDX_OSM
महुवा स्वास्थ्य चा‌ैकी,Lumbini,Kapilbastu,,clinic,,27.595072,82.983498,HDX_OSM
राजपुर स्वास्थ्य चाैकी,Lumbini,Kapilbastu,,clinic,,27.621956,83.007881,HDX_OSM
Barkalpur sosthya chauki,Lumbini,Kapilbastu,,clinic,,27.661184,82.98568,HDX_OSM
Dubiya sosthya chauki,Lumbini,Kapilbastu,,clinic,,27.711805,82.995415,HDX_OSM
sahari sosthya clinik ghanchaura,Lumbini,Kapilbastu,,clinic,,27.686153,83.021164,HDX_OSM
Ganeshpur,Lumbini,Kapilbastu,,clinic,,27.577444,82.789757,HDX_OSM
Ganeshpur Swsthy Chauki Vijaynagar-07 Ganeshpur,Lumbini,Kapilbastu,,clinic,,27.5685,82.783394,HDX_OSM
thakurapur swasth chauki,Lumbini,Kapilbastu,,clinic,,27.511936,82.747838,HDX_OSM
Shisawa swasthya chauki,Lumbini,Kapilbastu,,clinic,,27.527622,82.931091,HDX_OSM
Kusahawa swasthya chauki,Lumbini,Kapilbastu,,clinic,,27.514048,82.89463,HDX_OSM
Thuniya Sawasta chouki,Lumbini,Kapilbastu,,clinic,,27.60907,82.912953,HDX_OSM
Birpur health post,Lumbini,Kapilbastu,,clinic,,27.604253,82.861883,HDX_OSM
Manikhel Hospital,Bagmati,Lalitpur,,hospital,,27.513935,85.390465,HDX_OSM
Jana Swasthya Sewa Kendra,Karnali,Kalikot,,hospital,,29.352143,81.806715,HDX_OSM
"सामुदायिक स्वास्थ्य ईकाई, फोहरा",Lumbini,Dang,,clinic,,27.868766,82.380994,HDX_OSM
राजपुर स्वास्थ्य चौकी,Lumbini,Dang,,clinic,,27.88399,82.335233,HDX_OSM
पवित्रनगर नगर स्वास्थ्य केन्द्र,Lumbini,Dang,,clinic,,27.83325,82.468552,HDX_OSM
झग्रवा स्वास्थ्य केन्द्र,Lumbini,Dang,,clinic,,27.870548,82.355923,HDX_OSM
गुरुङ्खोला स्वास्थ्य केन्द्र,Lumbini,Dang,,clinic,,27.772269,82.45625,HDX_OSM
सिक्टा स्वास्थ्य केन्द्र,Lumbini,Dang,,clinic,,27.919141,82.276005,HDX_OSM
बेला स्वास्थ्य केन्द्र,Lumbini,Dang,,clinic,,27.851222,82.44772,HDX_OSM
हासिपुर स्वाथ्य चौकी,Lumbini,Dang,,clinic,,27.944577,82.686887,HDX_OSM
भुटनेटा आधारभूत स्वास्थ्य केन्द्र,Lumbini,Dang,,clinic,,28.014111,82.681516,HDX_OSM
"प्राथमिक स्वास्थ्य केन्द्र,स्युजा",Lumbini,Dang,,clinic,,28.061869,82.59496,HDX_OSM
बंगलाचुली अस्पताल,Lumbini,Dang,,hospital,,28.007327,82.6274,HDX_OSM
डाबर आधारभूत स्वास्थ्य केन्द्र,Lumbini,Dang,,clinic,,27.96562,82.608075,HDX_OSM
बढिपोखरा आधारभूत स्वास्थ्य केन्द्र,Lumbini,Dang,,clinic,,28.043198,82.590543,HDX_OSM
लाहाँपे आधारभूत स्वास्थ्य केन्द्र,Lumbini,Dang,,clinic,,27.957084,82.726746,HDX_OSM
लोहारपानी स्वास्थ चौकी,Lumbini,Dang,,clinic,,27.999035,82.706258,HDX_OSM
महादेवा स्वास्थ्य चौकी,Lumbini,Dang,,clinic,,27.81232,82.648014,HDX_OSM
गोबरडीहा स्वास्थ्य चौकी,Lumbini,Dang,,clinic,,27.814124,82.683361,HDX_OSM
स्वाथ्य चौकी,Lumbini,Dang,,clinic,,27.814612,82.537403,HDX_OSM
गंगापरस्पुर स्वास्थ्य चौकी,Lumbini,Dang,,clinic,,27.81239,82.567074,HDX_OSM
"नगर स्वास्थ्य केन्द्र, बनकट्टा",Lumbini,Dang,,clinic,,27.858587,82.587227,HDX_OSM
"नगर स्वास्थ्य केन्द्र, तिल्किगढ",Lumbini,Dang,,clinic,,27.863689,82.563248,HDX_OSM
लमही सर्पदंश उपचार केन्द्र,Lumbini,Dang,,hospital,,27.87015,82.527686,HDX_OSM
कोलाहि स्वास्थ्य चौकी,Lumbini,Dang,,clinic,,27.862951,82.527206,HDX_OSM
लमही अस्पताल,Lumbini,Dang,,hospital,,27.87037,82.52747,HDX_OSM
"नगर स्वास्थ्य केन्द्र, शेमरवा",Lumbini,Dang,,clinic,,27.840712,82.541718,HDX_OSM
"नगर स्वास्थ्य केन्द्र, बनगैं",Lumbini,Dang,,clinic,,27.857035,82.487411,HDX_OSM
Aadharbhut Swasth Sewa Kendra,Madhesh,Mahottari,,clinic,,26.681624,85.795609,HDX_OSM
Swasthya Chauki Dami Marai,Madhesh,Mahottari,,clinic,,26.703039,85.805092,HDX_OSM
Community Health Post Bhagawanpur,Madhesh,Mahottari,,clinic,,26.725557,85.841263,HDX_OSM
Bagada Health Post Bagada,Madhesh,Mahottari,,clinic,,26.782457,85.876137,HDX_OSM
"Dhirapur Health Post, Dhirapur",Madhesh,Mahottari,,clinic,,26.647066,85.850754,HDX_OSM
"Majhaura Bishanpur Swasthya Sewa, Bishanpur",Madhesh,Mahottari,,clinic,,26.662527,85.886269,HDX_OSM
"Adharbhut Swasthya Sewa Kendra, Matihani",Madhesh,Mahottari,,clinic,,26.614769,85.841675,HDX_OSM
"Matihani Prasuti Kendra, Matihani",Madhesh,Mahottari,,clinic,,26.614534,85.841789,HDX_OSM
Aadharbhut Swastha Kendra,Madhesh,Mahottari,,clinic,,26.706512,85.731506,HDX_OSM
Sarpallo Health Post,Madhesh,Mahottari,,clinic,,26.741495,85.778565,HDX_OSM
Aadharbhut Swasth Kendra,Madhesh,Mahottari,,clinic,,26.69795,85.741852,HDX_OSM
Itaharwa Katti Health Post,Madhesh,Mahottari,,clinic,,26.751869,85.735252,HDX_OSM
Manara Swasthya Chauki,Madhesh,Mahottari,,clinic,,26.721336,85.744797,HDX_OSM
Sandha Health Post,Madhesh,Mahottari,,clinic,,26.717968,85.763542,HDX_OSM
Ekdara Health Post,Madhesh,Mahottari,,clinic,,26.705612,85.756782,HDX_OSM
Bhatauliya Health Post,Madhesh,Mahottari,,clinic,,26.680151,85.773071,HDX_OSM
Bageya Health Post,Madhesh,Mahottari,,clinic,,26.698175,85.785438,HDX_OSM
Kolhuwa Bageya Health Post,Madhesh,Mahottari,,clinic,,26.688532,85.7808,HDX_OSM
Nagarik Arogya Sewa Kendra,Madhesh,Mahottari,,clinic,,26.685501,85.784874,HDX_OSM
Halkhori Health Post,Madhesh,Mahottari,,clinic,,26.666744,85.745445,HDX_OSM
D N B,Madhesh,Mahottari,,clinic,,26.987215,85.889076,HDX_OSM
Health Post Hathilet,Madhesh,Mahottari,,clinic,,26.936741,85.850418,HDX_OSM
Kisannagar Swasthya Chauwki,Madhesh,Mahottari,,clinic,,26.933279,85.899155,HDX_OSM
Rajbas Clinic,Madhesh,Mahottari,,clinic,,27.092298,85.932045,HDX_OSM
National Aayurveda Research Center,Madhesh,Mahottari,,hospital,,26.97365,85.882095,HDX_OSM
Bardibas Hospital,Madhesh,Mahottari,,hospital,,26.973921,85.879562,HDX_OSM
Trust Clinic,Madhesh,Mahottari,,clinic,,26.986792,85.893402,HDX_OSM
IRDS Samaj Sahakari Aspatal,Madhesh,Mahottari,,hospital,,26.986843,85.89534,HDX_OSM
Nagarik aarogay sewa kendar,Madhesh,Mahottari,,clinic,,26.735071,85.800835,HDX_OSM
Swasthy Chuaiki Samudayik Sastha Mahadiya,Madhesh,Mahottari,,clinic,,26.768805,85.889557,HDX_OSM
Bijalpura Health Post,Madhesh,Mahottari,,clinic,,26.915857,85.856125,HDX_OSM
"Adharbhut Swasthya Sewa Kendra, Matihani Bazaar",Madhesh,Mahottari,,clinic,,26.613565,85.848961,HDX_OSM
"Matihani Health Post, Matihani Tole",Madhesh,Mahottari,,clinic,,26.614454,85.841873,HDX_OSM
Karki Health Clinic,Madhesh,Bara,,clinic,,27.279553,84.992615,HDX_OSM
Chakri Adharbhut Sovathay Chauki,Madhesh,Bara,,clinic,,27.284437,85.020721,HDX_OSM
Fattepur Health Clinic,Madhesh,Bara,,clinic,,27.118235,85.019676,HDX_OSM
Fattepur Sawasath Chowki,Madhesh,Bara,,clinic,,27.119585,85.016945,HDX_OSM
Shahari Swathya Pravandhan Kendra,Madhesh,Bara,,clinic,,27.136805,85.018715,HDX_OSM
Sawasth Chaiki Inarwa Sira,Madhesh,Bara,,clinic,,27.087736,84.994919,HDX_OSM
Aman Medical Hall,Madhesh,Bara,,clinic,,27.085987,84.993225,HDX_OSM
Swsthya Chauki,Madhesh,Bara,,clinic,,27.145422,84.960792,HDX_OSM
"Adharbhut Sawasthay Sewa Kendra, Thulo Pota",Madhesh,Bara,,clinic,,27.121586,85.019638,HDX_OSM
Chhatapipra Health Post,Madhesh,Bara,,clinic,,27.092112,84.951454,HDX_OSM
Basic Health Service Centre,Madhesh,Bara,,clinic,,27.107401,84.999603,HDX_OSM
Nepal Aankha Aspatal,Madhesh,Bara,,hospital,,27.162399,84.987854,HDX_OSM
Mahnarwa HP,Madhesh,Bara,,clinic,,27.106113,85.059914,HDX_OSM
Dumarwana Polyclinic Pvt. Ltd.,Madhesh,Bara,,clinic,,27.143963,85.008285,HDX_OSM
Jenaral Health Clinic,Madhesh,Bara,,clinic,,27.087493,84.930337,HDX_OSM
"Aadharbhut Sawasthay Kendra, Gachhi",Madhesh,Bara,,clinic,,27.123381,85.002029,HDX_OSM
"Health Post, Harpur",Madhesh,Bara,,clinic,,27.083714,84.969299,HDX_OSM
Jeetpur Health Post Santi Tole,Madhesh,Parsa,,clinic,,27.134707,84.958908,HDX_OSM
Jeetpur Health Care Center,Madhesh,Bara,,clinic,,27.136019,84.960022,HDX_OSM
Jeetpur Polyclinic,Madhesh,Parsa,,clinic,,27.132191,84.957619,HDX_OSM
Aaliya Polyclinic,Madhesh,Parsa,,clinic,,27.134644,84.958565,HDX_OSM
Dharmanagar Sawasth Chauki,Madhesh,Bara,,clinic,,26.976234,84.97464,HDX_OSM
Matiwarwa Swasth Chauki,Madhesh,Bara,,clinic,,26.962193,84.9662,HDX_OSM
Anil Policlinic,Madhesh,Bara,,clinic,,26.966852,84.97403,HDX_OSM
Ghoghdariya Aadarvut Swasth Kendra,Madhesh,Bara,,clinic,,26.998316,85.004173,HDX_OSM
Nagar Swasth Kendra,Madhesh,Bara,,clinic,,27.008608,84.993034,HDX_OSM
"Basic Health Center, Ghusukpur",Madhesh,Bara,,clinic,,27.027609,84.99958,HDX_OSM
Raj Laxmi Relief Hospital Pvt Ltd,Madhesh,Bara,,hospital,,27.028606,85.001801,HDX_OSM
New Jeewan Jyoti Dental Clininic,Madhesh,Bara,,dentist,,27.029232,85.00193,HDX_OSM
Everest Health Clinic,Madhesh,Bara,,clinic,,27.028171,85.001938,HDX_OSM
General Polyclinic Rara Pharmacy,Madhesh,Bara,,clinic,,27.028025,85.001755,HDX_OSM
Hakim Polyclinic,Madhesh,Bara,,clinic,,27.027405,85.00164,HDX_OSM
Aaditya Pathology,Madhesh,Bara,,clinic,,27.027561,85.001656,HDX_OSM
Om Health Care Clinic,Madhesh,Bara,,clinic,,27.027666,85.001724,HDX_OSM
Om Shanti Dental Clininic,Madhesh,Bara,,clinic,,27.028114,85.001389,HDX_OSM
Terai Dental Clininic,Madhesh,Bara,,dentist,,27.030459,85.002266,HDX_OSM
Shreemati Raj Kumari Clinice,Madhesh,Bara,,clinic,,27.030456,85.002014,HDX_OSM
Samir Optical Centre,Madhesh,Bara,,hospital,,27.031244,85.002426,HDX_OSM
Sahri Swasth Parwadh,Madhesh,Bara,,clinic,,26.986906,84.995804,HDX_OSM
Balirampur Sawastha Chauki,Madhesh,Bara,,clinic,,26.987883,84.99485,HDX_OSM
Uttar Jhitkaiya Health Post,Madhesh,Bara,,clinic,,27.06979,85.026878,HDX_OSM
Basatpur Swastha Chowki,Madhesh,Bara,,clinic,,26.961683,84.984474,HDX_OSM
District Ayurved Health Center.,Madhesh,Bara,,hospital,,27.043842,84.995781,HDX_OSM
General Health Clinic,Madhesh,Bara,,clinic,,27.043152,84.999153,HDX_OSM
Bhatauda Swasthya Chauki,Madhesh,Bara,,clinic,,27.035652,84.975166,HDX_OSM
Matiariya Sawasthya Chauki,Madhesh,Bara,,clinic,,27.0788,85.053513,HDX_OSM
Adharbhoot Health Post Office Khapartata Toal,Madhesh,Bara,,clinic,,27.007347,84.990707,HDX_OSM
Dohari Swasth Chaoki,Madhesh,Bara,,clinic,,27.056784,85.036308,HDX_OSM
Mahesh Pur Health Post,Madhesh,Bara,,clinic,,27.045187,85.047554,HDX_OSM
Ramaekawal Clinic,Madhesh,Bara,,clinic,,27.044903,85.032253,HDX_OSM
New Health Post Building,Karnali,Kalikot,,hospital,,29.215728,81.544262,HDX_OSM
Old Health Post,Karnali,Kalikot,,hospital,,29.215723,81.544826,HDX_OSM
OPD Health Post,Karnali,Kalikot,,hospital,,29.250468,81.644449,HDX_OSM
District Eye Hospital,Karnali,Kalikot,,hospital,,29.151834,81.607473,HDX_OSM
Badimalika Clinic,Karnali,Kalikot,,clinic,,29.242225,81.643025,HDX_OSM
Nijon Skin Hospital,Koshi,Jhapa,,hospital,,26.66041,87.692313,HDX_OSM
Khodaha-21 Basic Health Post,Madhesh,Bara,,clinic,,27.076452,85.058418,HDX_OSM
Sk Cecil Nursing Home,Madhesh,Bara,,hospital,,27.028282,85.009499,HDX_OSM
Belpati Sawasth Cilnic,Madhesh,Bara,,clinic,,27.028975,85.002632,HDX_OSM
Hanuman Aayurbed,Madhesh,Bara,,clinic,,27.032099,85.004242,HDX_OSM
Shanti Heath Clinic,Madhesh,Bara,,clinic,,27.028234,85.002006,HDX_OSM
Kalaiya City Clinic,Madhesh,Bara,,clinic,,27.030054,85.002403,HDX_OSM
Max Poly Clinic,Madhesh,Bara,,clinic,,27.029165,85.002235,HDX_OSM
Aadharbhut Shwatha Sewa Kendra,Madhesh,Bara,,clinic,,27.034145,85.008003,HDX_OSM
Sanch Polyclinic,Madhesh,Bara,,clinic,,27.034153,85.005966,HDX_OSM
Yogsheela Hospital Pvt Ltd,Madhesh,Bara,,hospital,,27.029962,85.011971,HDX_OSM
Barampuri Sowath Sewa Kendra,Madhesh,Bara,,clinic,,27.053938,85.000862,HDX_OSM
Yadav Clinic,Madhesh,Bara,,clinic,,27.043224,85.032356,HDX_OSM
Ramnaand Clinic,Madhesh,Bara,,clinic,,27.044771,85.032989,HDX_OSM
Siswa Health Post,Madhesh,Bara,,clinic,,27.04043,85.031784,HDX_OSM
Shree Gadhmai Health Clinic,Madhesh,Bara,,clinic,,27.042906,85.032204,HDX_OSM
Rampur Basic Heth Center,Madhesh,Bara,,clinic,,27.02306,85.015007,HDX_OSM
Om Swasth Clinik,Madhesh,Bara,,clinic,,27.03488,85.003906,HDX_OSM
Soni Helth Clinik,Madhesh,Bara,,clinic,,27.034994,85.004204,HDX_OSM
Sarswati Health Clinic,Madhesh,Bara,,clinic,,27.045134,85.032084,HDX_OSM
Parsa Swasthsastha,Madhesh,Bara,,clinic,,27.036495,85.02137,HDX_OSM
Prathamik Swasthya Kendra,Karnali,Kalikot,,hospital,,29.194118,81.552875,HDX_OSM
Dep Medical Dental Clinic,Bagmati,Kathmandu,,clinic,,27.736676,85.347968,HDX_OSM
Yadunath Clinic,Gandaki,Parbat,Modi Rural Municipality,clinic,,28.24028,83.742064,HDX_OSM
HealthPost Representative House,Gandaki,Parbat,,clinic,,28.302379,83.721014,HDX_OSM
Gokul Medical,Gandaki,Parbat,Modi Rural Municipality,clinic,,28.277851,83.718419,HDX_OSM
Health Service,Gandaki,Parbat,Modi Rural Municipality,clinic,,28.296498,83.752036,HDX_OSM
Clinic,Gandaki,Parbat,Modi Gaunpalika,clinic,,28.264268,83.683005,HDX_OSM
Gaughar Clinic,Gandaki,Parbat,Modi Gaunpalika,clinic,,28.33752,83.730302,HDX_OSM
Patalpani Ward Clinic,Gandaki,Parbat,Modi Rural Municipality,clinic,,28.280297,83.709647,HDX_OSM
Radheshyam Pharmaceutical,Madhesh,Parsa,,clinic,,27.018303,84.87397,HDX_OSM
Neuro Clinic,Madhesh,Parsa,,clinic,,27.019844,84.881256,HDX_OSM
Basdilwa Health Post,Madhesh,Parsa,,clinic,,27.123444,84.899223,HDX_OSM
Lalparsa Swastha Chauki,Madhesh,Parsa,,clinic,,27.089411,84.90979,HDX_OSM
Udaypur Ghurmi Swasth Chowki,Madhesh,Parsa,,clinic,,27.070383,84.859261,HDX_OSM
Sawsth Chowki Sugauli Birta,Madhesh,Parsa,,clinic,,27.042572,84.856804,HDX_OSM
Sreesiya Health Post,Madhesh,Parsa,,clinic,,27.02589,84.850899,HDX_OSM
Prasauni Birta Swastha Chowki,Madhesh,Parsa,,clinic,,27.037333,84.879135,HDX_OSM
Manihari Swastha Chauki,Madhesh,Parsa,,clinic,,27.073896,84.889709,HDX_OSM
Bindawashini Swasth Chuki,Madhesh,Parsa,,clinic,,27.034193,84.819656,HDX_OSM
Bhawanipur Swastha Chowki,Madhesh,Parsa,,clinic,,27.061518,84.880898,HDX_OSM
Allu Sawat Chowki,Madhesh,Parsa,,clinic,,27.026516,84.840027,HDX_OSM
Nepal Indo Hospital And Center Pvt. Ltd.,Madhesh,Parsa,,hospital,,26.99581,84.863945,HDX_OSM
Bagahi Prathmik Swasth Kendra,Madhesh,Parsa,,clinic,,27.092098,84.891716,HDX_OSM
Urban Health Promotion Centre,Madhesh,Parsa,,clinic,,27.005411,84.883804,HDX_OSM
Jila Ayurved Swastha Kendra,Madhesh,Parsa,,clinic,,27.015925,84.894142,HDX_OSM
Sparsha Multispecialty Hospital,Madhesh,Bara,,hospital,,27.041462,84.901741,HDX_OSM
निलकण्ठ हस्पिटल,Madhesh,Parsa,,hospital,,27.029503,84.886772,HDX_OSM
तराई हस्पिटल,Madhesh,Parsa,,hospital,,27.028091,84.892197,HDX_OSM
Manglam Diagnostic Centre,Madhesh,Parsa,,clinic,,27.009083,84.873566,HDX_OSM
Deep Health Clinic,Madhesh,Parsa,,clinic,,27.013491,84.87439,HDX_OSM
Shah Hospital Pvt Ltd,Madhesh,Parsa,,hospital,,27.017437,84.875282,HDX_OSM
Aadhar Bhut Swasth Sewa Kendra,Madhesh,Parsa,,clinic,,27.017321,84.872795,HDX_OSM
Care Health Clinic,Madhesh,Parsa,,clinic,,27.017239,84.876213,HDX_OSM
Birgunj Nawjaat Tatha Bal Clinic,Madhesh,Parsa,,clinic,,27.015675,84.877853,HDX_OSM
Subh Dental House,Madhesh,Parsa,,dentist,,27.015325,84.878057,HDX_OSM
Aayutved Or Panchkarm Centre,Madhesh,Parsa,,clinic,,27.015263,84.878235,HDX_OSM
Hi-Tech Oral Dental,Madhesh,Parsa,,dentist,,27.015368,84.877993,HDX_OSM
Iksha Dental,Madhesh,Parsa,,dentist,,27.015224,84.87857,HDX_OSM
Crystal Dental,Madhesh,Parsa,,dentist,,27.015184,84.878652,HDX_OSM
Adharbhut Sawasth Sewa Kendra,Madhesh,Parsa,,clinic,,27.016684,84.878189,HDX_OSM
Nepal Dental House,Madhesh,Parsa,,dentist,,27.015094,84.878557,HDX_OSM
Manokamna Dental,Madhesh,Parsa,,dentist,,27.01524,84.878304,HDX_OSM
Asharam Hospital Pvt. Ltd,Madhesh,Parsa,,hospital,,27.016058,84.885841,HDX_OSM
Neuro And General Hospital Pvt.Ltd,Madhesh,Parsa,,hospital,,27.016707,84.885834,HDX_OSM
Shree Bhawani Hospital And Research Centre Pvt.Ltd,Madhesh,Parsa,,hospital,,27.013077,84.88353,HDX_OSM
Shiva Aaakha Aaspatal,Madhesh,Parsa,,hospital,,27.013796,84.882835,HDX_OSM
Prabhu Hospital Amd Research Centre,Madhesh,Parsa,,hospital,,27.013773,84.883972,HDX_OSM
Sah Hospital,Madhesh,Parsa,,hospital,,27.011721,84.87648,HDX_OSM
Krishna Hospital Pvt Ltd,Madhesh,Parsa,,hospital,,27.004518,84.871964,HDX_OSM
Sita Hospital Pvt.Ltd,Madhesh,Parsa,,hospital,,27.007484,84.874413,HDX_OSM
Advance Medicare Hospital Pvt Ltd,Madhesh,Parsa,,hospital,,27.007393,84.873802,HDX_OSM
Narayani Hospital,Madhesh,Parsa,,hospital,,27.004826,84.870895,HDX_OSM
Birgunj Om Hospital,Madhesh,Parsa,,hospital,,27.006407,84.871529,HDX_OSM
Birgunj Metrocity Hospital Pvt. Ltd,Madhesh,Parsa,,hospital,,27.001883,84.870995,HDX_OSM
Surya Hospital,Madhesh,Parsa,,hospital,,27.002867,84.870529,HDX_OSM
Narayani Eye Hospital,Madhesh,Parsa,,hospital,,26.995977,84.863281,HDX_OSM
M.B Media Dental College And Teaching Hospital Pvt. Ltd,Madhesh,Parsa,,hospital,,26.995325,84.862534,HDX_OSM
Nepal Endo Hospital And Eye Care,Madhesh,Parsa,,hospital,,26.995785,84.864059,HDX_OSM
Health Care Hospital,Madhesh,Parsa,,hospital,,27.013926,84.87046,HDX_OSM
Gwangju Clinic,Gandaki,Parbat,Modi Gaunpalika,hospital,,28.273872,83.742608,HDX_OSM
माेदि प्याथाेलाेजि क्लिनिक,Gandaki,Parbat,Modi Rural Municipality,clinic,,28.272091,83.739345,HDX_OSM
प्राथमिक स्वास्थ्य उपचार केन्द्र,Gandaki,Parbat,Modi Rural Municipality,clinic,,28.272363,83.739858,HDX_OSM
Biraj Dental Pvt ltd,Bagmati,Bhaktapur,,dentist,,27.674378,85.372122,HDX_OSM
Samjhana laboratory Clinic Pvt Ltd,Bagmati,Bhaktapur,,clinic,,27.674215,85.372976,HDX_OSM
संयम मेडिकाे सेन्टर,Gandaki,Parbat,,clinic,,28.272206,83.739625,HDX_OSM
Devraj Medicall Hall,Gandaki,Parbat,Modi Rural Municipality,clinic,,28.271894,83.73835,HDX_OSM
Bhukatangle Health Post,Gandaki,Parbat,Modi Gaunpalika,hospital,,28.315759,83.74461,HDX_OSM
Charka Clinic,Karnali,Dolpa,,clinic,,29.09059,83.409765,HDX_OSM
Khasare hospital,Sudurpashchim,Doti,,hospital,,29.053676,80.743876,HDX_OSM
Bhagwati Memorial Hospital,Bagmati,Nuwakot,,hospital,,27.902644,85.145781,HDX_OSM
Richmond Fellowship Nepal Treatment Rehabilitation And Training Centre,Bagmati,Kathmandu,,rehabilitation,,27.669532,85.292168,HDX_OSM
Panchkhal Polyclinci and Diagonstic Center,Bagmati,Kavre,,clinic,,27.647021,85.619883,HDX_OSM
Palanchowk Dental Clinic,Bagmati,Kavre,,dentist,,27.647559,85.620159,HDX_OSM
Urban Health Center Jitpur,Bagmati,Sindhupalchowk,,clinic,,27.720845,85.750773,HDX_OSM
Deurali Urban Health Center,Bagmati,Sindhupalchowk,,clinic,,27.778654,85.74037,HDX_OSM
Batase Health Post,Bagmati,Sindhupalchowk,,clinic,,27.803109,85.742623,HDX_OSM
Thulosirubari Health Post,Bagmati,Sindhupalchowk,,clinic,,27.735797,85.709869,HDX_OSM
Sanusiruwari Health Post,Bagmati,Sindhupalchowk,,clinic,,27.760546,85.706441,HDX_OSM
Irkhu Health Post,Bagmati,Sindhupalchowk,,clinic,,27.745678,85.748602,HDX_OSM
Kubuinde Health Post,Bagmati,Sindhupalchowk,,clinic,,27.776664,85.753416,HDX_OSM
Chautara Hospital Sindhupalchok,Bagmati,Sindhupalchowk,,hospital,,27.780479,85.711207,HDX_OSM
Biraj Dental Care,Bagmati,Sindhupalchowk,,dentist,,27.772528,85.718735,HDX_OSM
Samuhik Dental Care Pvt. Ltd,Bagmati,Sindhupalchowk,,dentist,,27.77594,85.712791,HDX_OSM
Community Health Unit Daduwa,Bagmati,Sindhupalchowk,,clinic,,27.717541,85.691843,HDX_OSM
District Community Eye Center,Bagmati,Sindhupalchowk,,hospital,,27.779785,85.711505,HDX_OSM
Batase Basic Health Care Center,Bagmati,Sindhupalchowk,,clinic,,27.802389,85.757147,HDX_OSM
Bhimtar Basic Health Service Centre,Bagmati,Sindhupalchowk,,clinic,,27.689774,85.689368,HDX_OSM
Chautara Basic Health Facility Center Ward no. 5,Bagmati,Sindhupalchowk,,clinic,,27.772138,85.718608,HDX_OSM
Urban Health Center Pipaldada,Bagmati,Sindhupalchowk,,clinic,,27.779529,85.681171,HDX_OSM
Pipaldada Health Post,Bagmati,Sindhupalchowk,,clinic,,27.793876,85.684474,HDX_OSM
Kadambas Health Post,Bagmati,Sindhupalchowk,,clinic,,27.729846,85.768221,HDX_OSM
Community Health Unit Khatrithok,Bagmati,Sindhupalchowk,,clinic,,27.698095,85.727518,HDX_OSM
Syaule Health Post,Bagmati,Sindhupalchowk,,clinic,,27.812416,85.693049,HDX_OSM
Tsho Rolpa Hospital,Bagmati,Dolakha,,hospital,,27.664343,86.047459,HDX_OSM
Dolakha Samudayik Hospital,Bagmati,Dolakha,,hospital,,27.665883,86.046197,HDX_OSM
Rampa City Health Center,Bagmati,Dolakha,,clinic,,27.688239,86.073334,HDX_OSM
Kupri City Health Center,Bagmati,Dolakha,,clinic,,27.663708,86.012095,HDX_OSM
Fulapa Dildhunga City Health Center,Bagmati,Dolakha,,clinic,,27.674692,86.084443,HDX_OSM
Community Health Center,Bagmati,Dolakha,,clinic,,27.7124,85.9443,HDX_OSM
Charikot Hospital,Bagmati,Dolakha,,hospital,,27.671613,86.049398,HDX_OSM
Suspa Chemawati Health Post,Bagmati,Dolakha,,clinic,,27.70193,86.058588,HDX_OSM
Makaibari Health Post,Bagmati,Dolakha,,clinic,,27.672787,86.014314,HDX_OSM
Lakuridanda Health Post,Bagmati,Dolakha,,clinic,,27.6735,85.9687,HDX_OSM
Bocha Health Post,Bagmati,Dolakha,,clinic,,27.688668,85.979836,HDX_OSM
Saunepani City Health Center,Bagmati,Dolakha,,clinic,,27.648967,86.035667,HDX_OSM
Mati Swastha Post,Bagmati,Dolakha,,clinic,,27.640368,86.045036,HDX_OSM
Kiratichap City Health Center,Bagmati,Dolakha,,clinic,,27.628132,86.065237,HDX_OSM
Ayurvedic Gaughar Clinic,Bagmati,Dolakha,,clinic,,27.628289,86.065012,HDX_OSM
Gadhi Aadharbhut Swasthya Chauki,Koshi,Sunsari,,clinic,,26.516657,87.199326,HDX_OSM
Chimdi Health,Koshi,Sunsari,,clinic,,26.486507,87.191612,HDX_OSM
Madheli Swasthya Chawaki,Koshi,Sunsari,,clinic,,26.613558,87.2453,HDX_OSM
Adharbhut Swasthaya Kendra,Koshi,Sunsari,,clinic,,26.566443,87.277763,HDX_OSM
Bhaluwa Swasthaya,Koshi,Sunsari,,clinic,,26.552832,87.249908,HDX_OSM
Simariya Swasthaya Chauki,Koshi,Sunsari,,clinic,,26.576428,87.249138,HDX_OSM
Jivan Jyoti Swasthaya Sewa Pvt Ltd,Koshi,Sunsari,,clinic,,26.570894,87.279381,HDX_OSM
Peoples Health Service Center Pvt Ltd,Koshi,Sunsari,,clinic,,26.571575,87.281265,HDX_OSM
Adharbhut Health Post,Koshi,Sunsari,,clinic,,26.587049,87.283986,HDX_OSM
Sai Physiotherapy and Welness,Koshi,Sunsari,,clinic,,26.57189,87.280792,HDX_OSM
Easy Care,Koshi,Sunsari,,clinic,,26.572384,87.279411,HDX_OSM
Swasthaya Chauki Purbha Kushaha,Koshi,Sunsari,,clinic,,26.51255,87.228981,HDX_OSM
Duhabi Swasthaya Chauki,Koshi,Sunsari,,clinic,,26.558458,87.270554,HDX_OSM
Aadharbhut Swasthaya Kendra,Koshi,Sunsari,,clinic,,26.571732,87.284858,HDX_OSM
Sunsari Samudayak Hospital Pvt.Ltd,Koshi,Sunsari,,clinic,,26.571726,87.279205,HDX_OSM
Swasthaya Chauki Sonapur,Koshi,Sunsari,,clinic,,26.590797,87.266136,HDX_OSM
शान्तिनगर आधारभूत स्वास्थ्य केन्द्र,Lumbini,Dang,,clinic,,28.149847,82.167405,HDX_OSM
धनौरी स्वास्थ्य चौकी,Lumbini,Dang,,clinic,,28.135765,82.160695,HDX_OSM
पेदी खोला स्वास्थ्य चौकी,Lumbini,Dang,,clinic,,28.219113,82.208119,HDX_OSM
"बाघमारे स्वास्थ्य चौकी, सिम्सुन्दरपुर",Lumbini,Dang,,clinic,,28.1772,82.192673,HDX_OSM
नया बस्ती आधारभूत स्वास्थ्य केन्द्र,Lumbini,Dang,,clinic,,28.183171,82.156469,HDX_OSM
दुविखोला आधारभूत स्वास्थ्य केन्द्र,Lumbini,Dang,,clinic,,28.130299,82.168646,HDX_OSM
"वडा स्वास्थ्य केन्द्र, बस्तिखोला",Lumbini,Dang,,clinic,,28.219596,82.226949,HDX_OSM
"आधारभुत स्वास्थ्य केन्द्र , सिशै",Lumbini,Rupandehi,,clinic,,27.643992,83.340075,HDX_OSM
मानमटेरीया स्वास्थ्य चौकी,Lumbini,Rupandehi,,clinic,,27.594866,83.332374,HDX_OSM
खड्वा वनगाइ स्वास्थ चौकि,Lumbini,Rupandehi,,clinic,,27.640843,83.366017,HDX_OSM
samudaik swasthya ikai boharawa,Lumbini,Rupandehi,,clinic,,27.550508,83.372368,HDX_OSM
harnaiya swasthya chauki,Lumbini,Rupandehi,,clinic,,27.563505,83.398361,HDX_OSM
chiliya swasthya chauki,Lumbini,Rupandehi,,clinic,,27.53884,83.438497,HDX_OSM
gonaha health post,Lumbini,Rupandehi,,clinic,,27.475479,83.373909,HDX_OSM
adharbhut health post bethari,Lumbini,Rupandehi,,clinic,,27.515867,83.392174,HDX_OSM
Nepa Health Post,Karnali,Dailekh,,hospital,,28.866361,81.567312,HDX_OSM
आधारभूत स्वास्थ्य केन्द्र चर्कमाटिया,Lumbini,Dang,,clinic,,28.136188,82.12287,HDX_OSM
हर्मिचौर स्वास्थ चौकी,Lumbini,Gulmi,,clinic,,27.979282,83.570686,HDX_OSM
Khadgakot Health Post,Lumbini,Gulmi,,clinic,,28.078375,83.54393,HDX_OSM
nagar swaath kendra,Lumbini,Rupandehi,,clinic,,27.498882,83.426354,HDX_OSM
ढावा स्वास्थ्य चौकी,Lumbini,Gulmi,,clinic,,28.020043,83.438184,HDX_OSM
जोहाङग प्राथमिक स्वास्थ्य केन्द्र,Lumbini,Gulmi,,hospital,,28.022989,83.440891,HDX_OSM
Belhara Health Post,Koshi,Dhankuta,,clinic,,26.959701,87.298452,HDX_OSM
Sahari Swasthya Clinic,Koshi,Dhankuta,,clinic,,26.999874,87.326657,HDX_OSM
Bhirgaun Health Post,Koshi,Dhankuta,,clinic,,27.02119,87.352181,HDX_OSM
Barahakshetra Nagar Hospital,Koshi,Sunsari,,hospital,,26.745348,87.136353,HDX_OSM
"Aadarbhut swasthya kendra, Sainik",Koshi,Sunsari,,clinic,,26.721119,87.128487,HDX_OSM
Mahendra Nagar Swasthya Chauki,Koshi,Sunsari,,clinic,,26.745571,87.136284,HDX_OSM
Bharoul Health Post,Koshi,Sunsari,,clinic,,26.747818,87.183907,HDX_OSM
"Basic Urban Health Promotion Center, Dhanpuri",Koshi,Sunsari,,clinic,,26.732003,87.174226,HDX_OSM
"Basic Health Center, Bhanu Tole",Koshi,Sunsari,,clinic,,26.761402,87.177773,HDX_OSM
"Samudayik Swasthya Chouki, Garaiya Tol",Koshi,Sunsari,,clinic,,26.75202,87.06501,HDX_OSM
"Samudaik Sawasthiy Ikai, Sunsan Chowk",Koshi,Sunsari,,clinic,,26.758004,87.146418,HDX_OSM
"Rukmini Hospital Pvt. Ltd., Chhipridaha",Lumbini,Rukum,,hospital,,28.617877,82.618683,HDX_OSM
"Primary Hospital, Bahun Thana",Lumbini,Rukum,,hospital,,28.617596,82.628156,HDX_OSM
"Parkashpur Primary Health Care Center, Baunikhola",Koshi,Sunsari,,clinic,,26.680015,87.097725,HDX_OSM
"Aadhardhut swasthya chauki, Rajbas",Koshi,Sunsari,,clinic,,26.713255,87.094762,HDX_OSM
Syalapakha swasthy chauki,Lumbini,Rukum,,clinic,,28.653288,82.528526,HDX_OSM
Nathigar Community Health Care Unit,Lumbini,Rukum,,clinic,,28.627979,82.573769,HDX_OSM
"Rukumkot Health Post, Dhakalbara",Lumbini,Rukum,,clinic,,28.623606,82.614438,HDX_OSM
"Rukumkot Health Post, Rumalbara",Lumbini,Rukum,,clinic,,28.607021,82.625542,HDX_OSM
Pokhara health Post,Lumbini,Rukum,,clinic,,28.635868,82.583672,HDX_OSM
Chhipkhola Community Health Care Unit,Lumbini,Rukum,,clinic,,28.651507,82.62692,HDX_OSM
"Health Post, Pwang Nayagad",Lumbini,Rukum,,clinic,,28.678177,82.679039,HDX_OSM
Amlachaur Community Health Care Unit,Lumbini,Rukum,,clinic,,28.633959,82.612069,HDX_OSM
Khopichaur Community Health Care Unit,Lumbini,Rukum,,clinic,,28.593103,82.583931,HDX_OSM
Arjal Primary Health Care Center,Lumbini,Rukum,,clinic,,28.679501,82.816025,HDX_OSM
Kol Primary Health Care Center,Lumbini,Rukum,,clinic,,28.60199,82.765976,HDX_OSM
Kharbang Community Health Care Unit,Lumbini,Rukum,,clinic,,28.679998,82.792641,HDX_OSM
Mayang Community Health Care Unit,Lumbini,Rukum,,clinic,,28.67494,82.834076,HDX_OSM
Rangsi Health Post,Lumbini,Rukum,,clinic,,28.619192,82.730904,HDX_OSM
Hukam Health Post,Lumbini,Rukum,,clinic,,28.678832,82.851921,HDX_OSM
Jang Health Post,Lumbini,Rukum,,clinic,,28.688939,82.709805,HDX_OSM
Taka Health Post,Lumbini,Rukum,,clinic,,28.583441,82.820137,HDX_OSM
Kada Health Post,Lumbini,Rukum,,clinic,,28.591337,82.643494,HDX_OSM
Kuchibang Community Health Care Unit,Lumbini,Rukum,,clinic,,28.575617,82.627426,HDX_OSM
Kakri Health Post,Lumbini,Rukum,,clinic,,28.554686,82.734932,HDX_OSM
Mahat Health Post,Lumbini,Rukum,,clinic,,28.554121,82.672257,HDX_OSM
Serabang Community Health Care Unit,Lumbini,Rukum,,clinic,,28.605649,82.657228,HDX_OSM
Morbang Health Post,Lumbini,Rukum,,clinic,,28.566015,82.667328,HDX_OSM
Chunbang Health Post,Lumbini,Rukum,,clinic,,28.535814,82.554703,HDX_OSM
Korja Community Health Care Unit,Lumbini,Rukum,,clinic,,28.548723,82.636536,HDX_OSM
Jhumla Community Health Care Unit,Lumbini,Rukum,,clinic,,28.575468,82.687413,HDX_OSM
Lukum Community Health Care Unit,Lumbini,Rukum,,clinic,,28.538946,82.779671,HDX_OSM
AIMS Hospital and Cancer Center Pvt.Ltd,Koshi,Morang,,hospital,,26.458403,87.283873,HDX_OSM
Get Well Hospital,Koshi,Morang,,hospital,,26.458297,87.283573,HDX_OSM
Biratnagar City Hospital Pvt.Ltd,Koshi,Morang,,hospital,,26.459324,87.282761,HDX_OSM
Suraksha Aspatal Pvt.Ltd,Koshi,Morang,,hospital,,26.461388,87.284578,HDX_OSM
Nepal Anti Tuberclosis Association (NATA) MORANG,Koshi,Morang,,hospital,,26.458952,87.284569,HDX_OSM
Biratnagar Aspatal Pvt.Ltd,Koshi,Morang,,hospital,,26.46661,87.278293,HDX_OSM
Birat Eye Hospital Pvt.Ltd,Koshi,Morang,,hospital,,26.437647,87.279663,HDX_OSM
General Hospital and Trauma Care Center,Koshi,Morang,,hospital,,26.453719,87.28441,HDX_OSM
Koshi Nursing Home,Koshi,Morang,,hospital,,26.453235,87.284879,HDX_OSM
RamLal Golchha Eye Hospital,Koshi,Morang,,hospital,,26.463724,87.284573,HDX_OSM
Saptakoshi Hospital & Nursing Home,Koshi,Morang,,hospital,,26.447218,87.277632,HDX_OSM
Saptakoshi Hospital Pvt. Ltd,Koshi,Morang,,hospital,,26.447476,87.27759,HDX_OSM
Nepal Red Cross Society Regional Blood Transfusion Service Center,Koshi,Morang,,hospital,,26.458486,87.286493,HDX_OSM
Abadh Narayan Nursing Home,Koshi,Morang,,hospital,,26.460973,87.283504,HDX_OSM
Green Cross Hospital,Koshi,Morang,,hospital,,26.458028,87.282745,HDX_OSM
Sanjeevani Hospital and IVF Center Pvt. Ltd,Koshi,Morang,,hospital,,26.458288,87.284738,HDX_OSM
Golden Hospital,Koshi,Morang,,hospital,,26.458525,87.284223,HDX_OSM
Sanjivani Hospital,,Dhanusa,,hospital,,26.715604,85.930729,HDX_OSM
"Pahad Prasuti Centre, Bhutingra",Karnali,Dolpa,,hospital,,29.054701,82.741285,HDX_OSM
Swastha Chowki Proha Dumariya,Madhesh,Rautahat,,clinic,,26.802572,85.219312,HDX_OSM
Auraiya Swastha Chowki,Madhesh,Rautahat,,clinic,,26.776649,85.220466,HDX_OSM
Banjharha Swastha Chowki Rautahat,Madhesh,Rautahat,,clinic,,26.766713,85.241914,HDX_OSM
Jathara Swastha Chowki,Madhesh,Rautahat,,clinic,,26.807521,85.205805,HDX_OSM
Mathiya Swasth Chowki,Madhesh,Rautahat,,clinic,,26.781707,85.203143,HDX_OSM
Ankar Health Post,Madhesh,Mahottari,,clinic,,26.670662,85.77444,HDX_OSM
Sahari Sawastha Kendra,Madhesh,Mahottari,,clinic,,26.66272,85.804939,HDX_OSM
Parsapatailli Sawastha Chauki,Madhesh,Mahottari,,clinic,,26.610823,85.828514,HDX_OSM
Parikauli Health Post,Madhesh,Mahottari,,clinic,,26.662081,85.81966,HDX_OSM
Suga Health Post,Madhesh,Mahottari,,clinic,,26.636058,85.812118,HDX_OSM
Doctors Medical Clinic,Madhesh,Mahottari,,clinic,,26.649683,85.800227,HDX_OSM
Eye Treatment and Surgical Centre Dhabauli,Madhesh,Mahottari,,hospital,,26.64358,85.784087,HDX_OSM
Bandhan Diagnostic Centre,Madhesh,Mahottari,,clinic,,26.649797,85.799917,HDX_OSM
Piles and Fistula Care Center Private Limited,,Dhanusa,,clinic,,26.73612,85.90904,HDX_OSM
Janasewa Swasthya and Polyclinic,,Dhanusa,,clinic,,26.736204,85.919846,HDX_OSM
Janakpur Trauma Hospital,Madhesh,Janakpur,,hospital,,26.729425,85.912509,HDX_OSM
Janakpur Surakshya Hospital Pvt. Ltd.,Madhesh,Janakpur,,hospital,,26.734201,85.917733,HDX_OSM
Janakpur Shriram Hospital Private Limited,Madhesh,Janakpur,,hospital,,26.738844,85.919534,HDX_OSM
Janakpur Madhesh Hospital Private Limited,Madhesh,Janakpur,,hospital,,26.743116,85.919217,HDX_OSM
Janakpur Dermatology and Cosmetic Clinic,Madhesh,Janakpur,,clinic,,26.736218,85.920289,HDX_OSM
Janakpur Children Hospital,Madhesh,Janakpur,,hospital,,26.724492,85.919872,HDX_OSM
Janak Memorial Hospital,,Dhanusa,,hospital,,26.73783,85.91907,HDX_OSM
Health Post Bashahiya,,Dhanusa,,clinic,,26.694174,85.907354,HDX_OSM
Dainik International Hospital Private Limited,,Dhanusa,,hospital,,26.727823,85.915794,HDX_OSM
City Health Center,,Dhanusa,,clinic,,26.727484,85.948442,HDX_OSM
Chandrakala Hospital and Research Center Pv. Ltd.,,Dhanusa,,hospital,,26.724679,85.919424,HDX_OSM
CFC Genaral Hospital,,Dhanusa,,hospital,,26.735847,85.909,HDX_OSM
Bindhi Health Post,,Dhanusa,,clinic,,26.706215,85.893599,HDX_OSM
Binaytara Cancer Center,,Dhanusa,,clinic,,26.726207,85.93765,HDX_OSM
Basic Health Service Center,,Dhanusa,,clinic,,26.738518,85.916226,HDX_OSM
Basic Health Care Center Ward 7,,Dhanusa,,clinic,,26.725014,85.918584,HDX_OSM
Basic Health Care Center Ward 2,,Dhanusa,,clinic,,26.731331,85.92791,HDX_OSM
Baidehi Hospital Private Limited,,Dhanusa,,hospital,,26.735923,85.922051,HDX_OSM
Apan Janakpur Health Care Pvt. Ltd.,Madhesh,Janakpur,,clinic,,26.727714,85.90113,HDX_OSM
Mithila Hospital,,Dhanusa,,hospital,,26.734299,85.924762,HDX_OSM
Maruti Health Clinic,,Dhanusa,,clinic,,26.722457,85.924493,HDX_OSM
Basic Health Care Center Ward 4,,Dhanusa,,clinic,,26.72522,85.927822,HDX_OSM
Sylar Polyclinic Private Limited,,Dhanusa,,clinic,,26.730032,85.933728,HDX_OSM
Janakpur City Hospital,Madhesh,Janakpur,,hospital,,26.733231,85.934216,HDX_OSM
Sahi Clinic and Pathology,,Dhanusa,,clinic,,26.682767,85.924969,HDX_OSM
Drbpura Rupaitha Health Post,,Dhanusa,,clinic,,26.683014,85.925059,HDX_OSM
Rama Memorial Hospital,,Dhanusa,,hospital,,26.751906,85.925638,HDX_OSM
Mu Health post,Karnali,Dolpa,,hospital,,29.052777,82.722826,HDX_OSM
Prasad Clinic & Medical Hall,Lumbini,Rupandehi,,yes,,27.514491,83.453042,HDX_OSM
Morden Artho Polyclinic Private Limited,Madhesh,Mahottari,,clinic,,26.644105,85.80287,HDX_OSM
Bishwa Dental Clinic,Madhesh,Mahottari,,dentist,,26.646925,85.799489,HDX_OSM
Adharbhut Swastha Kendra,Madhesh,Mahottari,,clinic,,26.645211,85.812827,HDX_OSM
Eye Hospital Jaleshwor,Madhesh,Mahottari,,hospital,,26.653348,85.807197,HDX_OSM
Pigauna Health Post,Madhesh,Mahottari,,clinic,,26.653537,85.82848,HDX_OSM
Jaleshwornath Polyclinic and Diagnostic Centre,Madhesh,Mahottari,,clinic,,26.652685,85.797782,HDX_OSM
Nainhi Health Post,Madhesh,Mahottari,,clinic,,26.653153,85.766208,HDX_OSM
Health Post Kanakpatti,,Dhanusa,,clinic,,26.722598,85.971224,HDX_OSM
Shree Janaki Eye Hospital,,Dhanusa,,hospital,,26.73817,85.91726,HDX_OSM
Rajdhani Hospital,,Dhanusa,,hospital,,26.735128,85.917904,HDX_OSM
Tripurakot health post,Karnali,Dolpa,,hospital,,29.020204,82.794174,HDX_OSM
Shree G Polyclinic and Health Care Center,Lumbini,Rupandehi,,yes,,27.505609,83.452995,HDX_OSM
Rosis Pathology,Lumbini,Rupandehi,,yes,,27.506236,83.453346,HDX_OSM
Cordish health care clinic,Lumbini,Rupandehi,,yes,,27.497215,83.459221,HDX_OSM
Tara nagar health post,Gandaki,Gorkha,,clinic,,27.969794,84.563772,HDX_OSM
Taple health post,Gandaki,Gorkha,,clinic,,28.019646,84.677323,HDX_OSM
Prithivi Narayan Community Hospital,Gandaki,Gorkha,,hospital,,27.995041,84.568735,HDX_OSM
paslang urban health center,Gandaki,Gorkha,,clinic,,28.012059,84.605304,HDX_OSM
gorrkha municipality 7 primary health center,Gandaki,Gorkha,,clinic,,28.000013,84.611314,HDX_OSM
Ghalang urban health center,Gandaki,Gorkha,,clinic,,28.029593,84.610192,HDX_OSM
Pyuggharbesi nagar swasthye akai,Gandaki,Gorkha,,clinic,,27.94892,84.538902,HDX_OSM
Raniswara health post,Gandaki,Gorkha,,clinic,,27.982272,84.636949,HDX_OSM
Aama baa hospital,Gandaki,Gorkha,,hospital,,27.996599,84.623125,HDX_OSM
Laxmi bazar urban health center,Gandaki,Gorkha,,clinic,,27.968499,84.620756,HDX_OSM
simle health post,Gandaki,Gorkha,,clinic,,27.917411,84.530708,HDX_OSM
Aadharbhut swasthye kendra simalgairi,Gandaki,Gorkha,,clinic,,27.916916,84.546382,HDX_OSM
Gramid samudayek swasthe kendra,Bagmati,Sindhupalchowk,,clinic,,27.790872,85.501454,HDX_OSM
Sindhukot swasthe chauki,Bagmati,Sindhupalchowk,,clinic,,27.815731,85.517088,HDX_OSM
Katunge sahari swasthe,Bagmati,Sindhupalchowk,,clinic,,27.833144,85.550331,HDX_OSM
Melamchi hospital,Bagmati,Sindhupalchowk,,hospital,,27.827109,85.573601,HDX_OSM
Dubachaur swasthe chauki,Bagmati,Sindhupalchowk,,clinic,,27.870173,85.568411,HDX_OSM
Melamchi phc,Bagmati,Sindhupalchowk,,clinic,,27.83142,85.57511,HDX_OSM
Basic Health Centre Service,Bagmati,Chitwan,,clinic,,27.629668,84.495027,HDX_OSM
"Nagar Swasthya Kendra, Narkatiya",Bagmati,Chitwan,,clinic,,27.600958,84.492043,HDX_OSM
Nagar Swastha Kendra Tarauli,Bagmati,Chitwan,,clinic,,27.590022,84.540414,HDX_OSM
Jamunapur Health Clinic,Bagmati,Chitwan,,clinic,,27.65703,84.519814,HDX_OSM
Urban Health Centre,Bagmati,Chitwan,,clinic,,27.661665,84.498792,HDX_OSM
Pashu Sewa Kendra,Bagmati,Chitwan,,clinic,,27.634975,84.508902,HDX_OSM
"Nagar Swastha Kendra, Dumrichowk",Bagmati,Chitwan,,clinic,,27.637039,84.531098,HDX_OSM
Aadharbhut Swastha Sewa Kendra Ranapa 15,Bagmati,Chitwan,,clinic,,27.658305,84.531662,HDX_OSM
District Ayurved Health Centre,Bagmati,Chitwan,,hospital,,27.623431,84.508443,HDX_OSM
Sun health post,Karnali,Dolpa,,hospital,,29.008651,82.785253,HDX_OSM
Nursing Uparchar Kendra,Madhesh,Saptari,,clinic,,26.704778,86.945238,HDX_OSM
"Swasthya Chauki, Fattepur",Madhesh,Saptari,,clinic,,26.73612,86.930911,HDX_OSM
Sahari Swasthya Kendra,Madhesh,Saptari,,clinic,,26.727722,86.958138,HDX_OSM
Anukul Polyclinic,Madhesh,Saptari,,clinic,,26.738245,86.931449,HDX_OSM
PHC Launiya,Madhesh,Saptari,,clinic,,26.48056,86.769711,HDX_OSM
PHC Sakarpura,Madhesh,Saptari,,clinic,,26.473178,86.79425,HDX_OSM
Aadhaebhut Swastha Kendra,Madhesh,Saptari,,clinic,,26.496956,86.81394,HDX_OSM
Ko Barsain Health Post,Madhesh,Saptari,,clinic,,26.495653,86.82361,HDX_OSM
Tripti Memorial ENT Hospital,Madhesh,Saptari,,hospital,,26.464243,86.764976,HDX_OSM
Health Post Betaha,Madhesh,Siraha,,clinic,,26.845402,86.171341,HDX_OSM
Gautari Health Post,Madhesh,Siraha,,clinic,,26.826424,86.184271,HDX_OSM
Karjanha Health Post,Madhesh,Siraha,,clinic,,26.859758,86.196897,HDX_OSM
Jufal health post,Karnali,Dolpa,,hospital,,28.982759,82.822545,HDX_OSM
Self Help Group For Cerebral Palsy Nepal,Bagmati,Lalitpur,,hospital,,27.621303,85.328396,HDX_OSM
"Chatari Swasthya Chauki, Ward 2",Madhesh,Siraha,,clinic,,26.726776,86.191731,HDX_OSM
Health Post Ward 4,Madhesh,Siraha,,clinic,,26.761974,86.183626,HDX_OSM
Unique Model Hospital,Madhesh,Siraha,,hospital,,26.767392,86.212772,HDX_OSM
Health Post Ward 12,Madhesh,Siraha,,clinic,,26.702714,86.214164,HDX_OSM
Health Post Ward 5,Madhesh,Siraha,,clinic,,26.778581,86.154838,HDX_OSM
Kriti Saamudayik Swasthya Upachar Kendra,Madhesh,Saptari,,clinic,,26.646475,86.893635,HDX_OSM
Rupnagar Swasthya Chauki,Madhesh,Saptari,,clinic,,26.647694,86.889686,HDX_OSM
Aadarbhut Swasthya Kendra,Madhesh,Saptari,,clinic,,26.635016,86.880488,HDX_OSM
"Swasthhya Chauki, Dharampur",Madhesh,Saptari,,clinic,,26.660916,86.913758,HDX_OSM
Swastha Chauki Ghoganpur,Madhesh,Saptari,,clinic,,26.666388,86.925205,HDX_OSM
Swasthya Chauki Barmajiya,Madhesh,Saptari,,clinic,,26.60303,86.899604,HDX_OSM
Swasthya Chauki Barawa,Madhesh,Saptari,,clinic,,26.586286,86.90453,HDX_OSM
Health Post Koiladi,Madhesh,Saptari,,clinic,,26.482115,86.812345,HDX_OSM
AMDA Hospital,Koshi,Jhapa,,hospital,,26.674605,87.688325,HDX_OSM
CIWEC Hospital,Bagmati,Kathmandu,"Lainchaur, Kathmandu",hospital,,27.720271,85.317881,HDX_OSM
Manobishlesan Kendra Nepal,Bagmati,Kathmandu,,clinic,,27.684395,85.3457,HDX_OSM
Clinic Nepal,Bagmati,Chitwan,,clinic,,27.572727,84.231611,HDX_OSM
Thargaun hospital,Karnali,Dolpa,,hospital,,28.910293,82.812303,HDX_OSM
Jha Upachar Kendra,Madhesh,Saptari,,clinic,,26.507576,86.86049,HDX_OSM
Krishna Eye Care And Optical Center,Madhesh,Saptari,,hospital,,26.508329,86.855455,HDX_OSM
Health Post Joginiya Number 2,Madhesh,Saptari,,clinic,,26.523557,86.862783,HDX_OSM
Inaruwa Health Post,Madhesh,Saptari,,clinic,,26.508077,86.846935,HDX_OSM
Adharbhut Swastey kendra Sakhuwa,Madhesh,Saptari,,clinic,,26.499213,86.847737,HDX_OSM
Health Post Rampura Malhaniya,Madhesh,Saptari,,clinic,,26.461702,86.805319,HDX_OSM
Health Post Portaha,Madhesh,Saptari,,clinic,,26.55703,86.884759,HDX_OSM
Basic Health Center Yoginiya,Madhesh,Saptari,,clinic,,26.519855,86.867321,HDX_OSM
Madhuwapur Health Post,Madhesh,Saptari,,clinic,,26.555734,86.874826,HDX_OSM
Health Post 1 Number Joginiya,Madhesh,Saptari,,clinic,,26.528291,86.871362,HDX_OSM
Lumbini Chasma Center,Lumbini,Rupandehi,,optometrist,,27.497112,83.457789,HDX_OSM
Sahu chasma center,Lumbini,Rupandehi,,optometrist,,27.497506,83.457663,HDX_OSM
Gupta chasma ghar,Lumbini,Rupandehi,,optometrist,,27.497266,83.459203,HDX_OSM
Minaxxi eye care,Lumbini,Rupandehi,,optometrist,,27.49797,83.458974,HDX_OSM
Badri Eye Cnetre,Lumbini,Rupandehi,,optometrist,,27.497801,83.458393,HDX_OSM
"SubCentre, Ranthi",,,Ranthi,centre,,29.897214,80.561445,HDX_OSM
"SubCentre, Dhunga Toli",,,Dhunga Toli,centre,,29.797424,80.407013,HDX_OSM
"SubCentre, Titari",,,Titari,centre,,29.745611,80.360791,HDX_OSM
"SubCentre, Sosa",,,Sosa,centre,,29.988616,80.660026,HDX_OSM
"SubCentre, Rung",,,Rung,centre,,29.997325,80.674931,HDX_OSM
Brinos,Lumbini,Banke,,hospital,,28.059682,81.635891,HDX_OSM
Hospital Underconstruction,Lumbini,Rupandehi,,hospital,,27.685942,83.338923,HDX_OSM
khop ra gaunghar clinic,Sudurpashchim,Kailali,,hospital,,28.774895,80.612629,HDX_OSM
Krishna Clinic,Sudurpashchim,Kailali,,clinic,,28.53326,81.12056,HDX_OSM
Shrijana Medical Hall,Sudurpashchim,Kailali,,clinic,,28.533303,81.120658,HDX_OSM
Baikadha Urban Health Center,Karnali,Surkhet,,hospital,,28.432845,81.952844,HDX_OSM
Himalaya Medicine Center,Koshi,Jhapa,Birtamode,clinic,,26.642466,87.99151,HDX_OSM
Chhapa health post(छाप डाडां),Karnali,Salyan,,hospital,,28.483174,82.137145,HDX_OSM
Maya Metro Hospital,Sudurpashchim,Kailali,,hospital,,28.711185,80.568451,HDX_OSM
Bhachchek Health Post,Gandaki,Gorkha,,hospital,,28.156478,84.647658,HDX_OSM
Novant Diagnosis Care,Bagmati,Kathmandu,,doctors,,27.729192,85.360059,HDX_OSM
Indra Medical Hall,Bagmati,Kathmandu,,clinic,,27.674301,85.280279,HDX_OSM
Hospital Building,,Dhanusa,Chhirreshwornath,hospital,,26.815316,85.952858,HDX_OSM
Pyuthan Redcross,Lumbini,Pyuthan,,blood_donation,,28.103782,82.853405,HDX_OSM
"SubCentre, Madlak",,,Madlak,centre,,29.385541,80.253657,HDX_OSM
Nishan Health Clinic,Gandaki,Syangja,,health_clinic,,27.981292,83.754786,HDX_OSM
Kantipur Dental Care,Gandaki,Syangja,,dental,,27.983908,83.760326,HDX_OSM
Time Health Care Center,Gandaki,Syangja,,health_care_center,,27.981575,83.754875,HDX_OSM
Kirtipur Medical Hall,Bagmati,Kathmandu,,clinic,,27.675045,85.281034,HDX_OSM
Aarambha Pharmacy,Bagmati,Bhaktapur,,clinic,,27.665563,85.366818,HDX_OSM
राम्रीकाँडा आधारभूत स्वास्थ्य सेवा केन्द्र,Karnali,Surkhet,,hospital,,28.345568,81.925723,HDX_OSM
Niroga-Dham,Bagmati,Lalitpur,,hospital,,27.537928,85.318354,HDX_OSM
B and C,Koshi,Jhapa,,hospital,,26.644861,87.998096,HDX_OSM
Dolakha health post,Bagmati,Dolakha,,clinic,,27.679262,86.072026,HDX_OSM
Mega Doctor,Lumbini,Dang,,clinic,,28.041473,82.486674,HDX_OSM
Kanka Sundari Medical Hall,Bagmati,Kathmandu,,clinic,,27.66457,85.253905,HDX_OSM
"SubCentre, Bharphori",,,Bharphori,centre,,26.444578,86.686801,HDX_OSM
Milan Jung,Bagmati,Dolakha,,doctors,,27.534888,86.044433,HDX_OSM
MS Health Care and Gastro Center,Bagmati,Kathmandu,,clinic,,27.672103,85.346246,HDX_OSM
Chhipra Health Post,Karnali,Humla,,hospital,,29.940228,81.856267,HDX_OSM
Ratanpura,Lumbini,Nawalparasi,,doctors,,27.430041,83.793232,HDX_OSM
Oracare,Bagmati,Kathmandu,,dentist,,27.711049,85.326417,HDX_OSM
Prithivi Dental Care,Gandaki,Kaski,,dentist,,28.207944,83.984138,HDX_OSM
Dhingha Rangjen Community Health Service Center,Bagmati,Sindhupalchowk,,clinic,,28.018491,85.525661,HDX_OSM
Paropakar Dental Care Center,Gandaki,Kaski,,dentist,,28.223382,83.990148,HDX_OSM
Mata Manakamana Dental,Gandaki,Kaski,,dentist,,28.151657,84.063901,HDX_OSM
Perfect Dental Care,Gandaki,Kaski,,dentist,,28.224263,83.986062,HDX_OSM
Dhaulagiri Dental Home,Gandaki,Kaski,,dentist,,28.261074,83.971549,HDX_OSM
Amrit Dental Clinic,Gandaki,Kaski,,dentist,,28.163681,84.068389,HDX_OSM
Bindabasini Dental Care,Gandaki,Kaski,,dentist,,28.191961,83.970312,HDX_OSM
Fewa Dental Clinic,Gandaki,Kaski,,dentist,,28.224016,83.987377,HDX_OSM
छाया पोलिक्लिनिक,,Arghakhanchi,,hospital,,27.972174,83.124054,HDX_OSM
Doctors Dental & Implant Centre,Gandaki,Kaski,,dentist,,28.220777,83.986946,HDX_OSM
Padmashree Dental Home,Gandaki,Kaski,,dentist,,28.219436,83.98661,HDX_OSM
Mamata Polyclinic,Gandaki,Kaski,,clinic,,28.163408,84.068526,HDX_OSM
Rupa Swasthya Clinic,Gandaki,Kaski,,clinic,,28.163075,84.057516,HDX_OSM
Geno Doctors Centre,Gandaki,Kaski,,clinic,,28.24343,83.983967,HDX_OSM
Siddhartha Health Care,Gandaki,Kaski,,clinic,,28.224278,83.984602,HDX_OSM
Manisona Health Care,Gandaki,Kaski,,doctor,,28.229197,83.990722,HDX_OSM
Kisor Kisori Maitri Youn Tatha Prajanan Swasthya Seba Clinic,Gandaki,Kaski,,clinic,,28.133873,84.029727,HDX_OSM
Young Friendly Sex and Fertility Clinic,Gandaki,Kaski,,clinic,,28.239083,83.889192,HDX_OSM
International Medicare and Assistance Centre,Gandaki,Kaski,,clinic,,28.211053,83.964974,HDX_OSM
Tahun Primary Health Center,Lumbini,Palpa,,clinic,,27.832577,83.712283,HDX_OSM
Rasuwa District Hospital,Bagmati,Rasuwa,,hospital,,28.110444,85.296484,HDX_OSM
Nepalgunj Dental Lab,Lumbini,Banke,,dentist,,28.052246,81.621573,HDX_OSM
Banepa Health Care,Bagmati,Kavre,,clinic,,27.631057,85.520753,HDX_OSM
Dhakal Health Clinic,Karnali,Humla,,clinic,,29.621984,81.780078,HDX_OSM
Smile Dental Care,Gandaki,Kaski,,dentist,,28.222591,83.991049,HDX_OSM
Birauta Dental Clinic,Gandaki,Kaski,,dentist,,28.192413,83.971188,HDX_OSM
Doctor Tooth Dental Care,Gandaki,Kaski,Pokhara,dentist,,28.224074,83.990052,HDX_OSM
Gau Ghar Clinic,Gandaki,Kaski,,clinic,,28.279375,83.953617,HDX_OSM
Shardikhola Polyclinic,Gandaki,Kaski,,clinic,,28.243339,83.988807,HDX_OSM
Sahara International Fertilty Centre,Gandaki,Kaski,,clinic,,28.225123,83.980051,HDX_OSM
Janapriya Hospital,Gandaki,Kaski,,hospital,,28.206629,83.976918,HDX_OSM
फिजियोथेरापी र लाइफस्टाइल क्लिनिक,Bagmati,Kathmandu,,clinic,,27.672868,85.352479,HDX_OSM
Annapurna Bal Tatha Mahila Hospital,Gandaki,Kaski,,hospital,,28.203119,84.005943,HDX_OSM
Safal Dental Clinic,Gandaki,Kaski,,dentist,,28.200802,83.995885,HDX_OSM
"Primary Health Center, Gajuri",Bagmati,Dhading,,hospital,,27.806481,84.879983,HDX_OSM
Chiti Health Post चीती स्वास्थ्य केन्द्र,Bagmati,Rasuwa,,hospital,,27.98744,85.24555,HDX_OSM
joshipur physical health center,Sudurpashchim,Kailali,,hospital,,28.575345,81.022646,HDX_OSM
Chamada Hospital,Sudurpashchim,Dadeldhura,,hospital,,29.343129,80.547893,HDX_OSM
Shikhar Dental Hospital,Sudurpashchim,Kailali,Attariya,hospital,,28.811772,80.553203,HDX_OSM
Jeevan Raksha Hi-Tech Diahonisti Center,Lumbini,Banke,,clinic,,28.053843,81.61722,HDX_OSM
G.S. pharma,Bagmati,Kathmandu,,laboratory,,27.66643,85.265646,HDX_OSM
Sunrise Medico Firm,Gandaki,Kaski,,laboratory,,28.207845,83.984038,HDX_OSM
Kritika Medico Pharma,Gandaki,Kaski,,laboratory,,28.208596,83.984685,HDX_OSM
Rayal Birthing Center,Sudurpashchim,Bajhang,,birthing_centre,,29.466786,80.954954,HDX_OSM
Balagi Clinic,Lumbini,Banke,,clinic,,28.059002,81.61748,HDX_OSM
Dipendra Medical Hall,Gandaki,Kaski,,clinic,,28.232346,83.98339,HDX_OSM
Pokhara ENT Centre,Gandaki,Kaski,,doctor,,28.210632,83.980733,HDX_OSM
Kuwan Medical,Gandaki,Kaski,,clinic,,28.210368,84.011477,HDX_OSM
Chaudhary Sarkar Box Clicnic And Pharmacy,Lumbini,Banke,,clinic,,28.050683,81.61798,HDX_OSM
Specialist Hospital pvt ltd,Lumbini,Banke,,hospital,,28.054716,81.613938,HDX_OSM
Mahila Hospital,,,"Nautanwa, Main Bazar PHC Campas, Mahila hospital",hospital,,27.429993,83.42041,HDX_OSM
Gandaki Imaging & Diagnostic Center,Gandaki,Kaski,,clinic,,28.223057,83.991013,HDX_OSM
Uniwue Medical Hall,Gandaki,Kaski,,clinic,,28.132618,84.082411,HDX_OSM
Advanced Poly Clinic,Gandaki,Kaski,,clinic,,28.213705,83.985339,HDX_OSM
"TB Nepal, Nepalgunj Tuberculosis Referal Center",Lumbini,Banke,,hospital,,28.061035,81.632136,HDX_OSM
24 Hour,Koshi,Morang,,clinic,,26.657431,87.318233,HDX_OSM
Badhwara Health Post,Madhesh,Rautahat,,clinic,,26.815321,85.310147,HDX_OSM
