[
  {
    "name": "Lakecity Hospital and Critical Care Pvt.Ltd",
    "province": "Gandaki",
    "district": "",
    "address": "",
    "hospital_type": null,
    "image_url": null,
    "source": "NSSD",
    "latitude": null,
    "longitude": null
  },
  {
    "name": "Lamjung Hospital",
    "province": "Gandaki",
    "district": "",
    "address": "",
    "hospital_type": null,
    "image_url": null,
    "source": "NSSD",
    "latitude": null,
    "longitude": null
  },
  {
    "name": "Dhaulagiri Zonal Hospital",
    "province": "Gandaki",
    "district": "",
    "address": "",
    "hospital_type": null,
    "image_url": null,
    "source": "NSSD",
    "latitude": null,
    "longitude": null
  },
  {
    "name": "Beni Hospital",
    "province": "Gandaki",
    "district": "",
    "address": "",
    "hospital_type": null,
    "image_url": null,
    "source": "NSSD",
    "latitude": null,
    "longitude": null
  },
  {
    "name": "Syangja District Hospital",
    "province": "Gandaki",
    "district": "",
    "address": "",
    "hospital_type": null,
    "image_url": null,
    "source": "NSSD",
    "latitude": null,
    "longitude": null
  },
  {
    "name": "Parbat District Hospital",
    "province": "Gandaki",
    "district": "",
    "address": "",
    "hospital_type": null,
    "image_url": null,
    "source": "NSSD",
    "latitude": null,
    "longitude": null
  },
  {
    "name": "Gorkha Hospital",
    "province": "Gandaki",
    "district": "",
    "address": "",
    "hospital_type": null,
    "image_url": null,
    "source": "NSSD",
    "latitude": null,
    "longitude": null
  },
  {
    "name": "Damauli Hospital",
    "province": "Gandaki",
    "district": "",
    "address": "",
    "hospital_type": null,
    "image_url": null,
    "source": "NSSD",
    "latitude": null,
    "longitude": null
  },
  {
    "name": "Madhyabindu District Hospital",
    "province": "Gandaki",
    "district": "",
    "address": "",
    "hospital_type": null,
    "image_url": null,
    "source": "NSSD",
    "latitude": null,
    "longitude": null
  },
  {
    "name": "Lumbini Provincial Hospital",
    "province": "Lumbini",
    "district": "",
    "address": "",
    "hospital_type": null,
    "image_url": null,
    "source": "NSSD",
    "latitude": null,
    "longitude": null
  },
  {
    "name": "District Hospital Bardia",
    "province": "Lumbini",
    "district": "",
    "address": "",
    "hospital_type": null,
    "image_url": null,
    "source": "NSSD",
    "latitude": null,
    "longitude": null
  },
  {
    "name": "Rapti Zonal Hospital",
    "province": "Lumbini",
    "district": "",
    "address": "",
    "hospital_type": null,
    "image_url": null,
    "source": "NSSD",
    "latitude": null,
    "longitude": null
  },
  {
    "name": "Siddharthanagar City Hospital",
    "province": "Lumbini",
    "district": "",
    "address": "",
    "hospital_type": null,
    "image_url": null,
    "source": "NSSD",
    "latitude": null,
    "longitude": null
  },
  {
    "name": "Gautam Buddha Community Heart Hospital",
    "province": "Lumbini",
    "district": "",
    "address": "",
    "hospital_type": null,
    "image_url": null,
    "source": "NSSD",
    "latitude": null,
    "longitude": null
  },
  {
    "name": "Bheri Zonal Hospital",
    "province": "Lumbini",
    "district": "",
    "address": "",
    "hospital_type": null,
    "image_url": null,
    "source": "NSSD",
    "latitude": null,
    "longitude": null
  },
  {
    "name": "Crimson Hospital",
    "province": "Lumbini",
    "district": "",
    "address": "",
    "hospital_type": null,
    "image_url": null,
    "source": "NSSD",
    "latitude": null,
    "longitude": null
  },
  {
    "name": "Rapti Sub Regional Hospital",
    "province": "Lumbini",
    "district": "",
    "address": "",
    "hospital_type": null,
    "image_url": null,
    "source": "NSSD",
    "latitude": null,
    "longitude": null
  },
  {
    "name": "Sushil Koirala Prakhar Cancer Hospital",
    "province": "Lumbini",
    "district": "",
    "address": "",
    "hospital_type": null,
    "image_url": null,
    "source": "NSSD",
    "latitude": null,
    "longitude": null
  },
  {
    "name": "Siddhababa Hospital and Research Center",
    "province": "Lumbini",
    "district": "",
    "address": "",
    "hospital_type": null,
    "image_url": null,
    "source": "NSSD",
    "latitude": null,
    "longitude": null
  },
  {
    "name": "R.C. Tharu Memorial City Hospital",
    "province": "Lumbini",
    "district": "",
    "address": "",
    "hospital_type": null,
    "image_url": null,
    "source": "NSSD",
    "latitude": null,
    "longitude": null
  },
  {
    "name": "Mid-Western Regional Hospital, Surkhet",
    "province": "Karnali",
    "district": "",
    "address": "",
    "hospital_type": null,
    "image_url": null,
    "source": "NSSD",
    "latitude": null,
    "longitude": null
  },
  {
    "name": "Seti Zonal Hospital",
    "province": "Karnali",
    "district": "",
    "address": "",
    "hospital_type": null,
    "image_url": null,
    "source": "NSSD",
    "latitude": null,
    "longitude": null
  },
  {
    "name": "Mahakali Hospital",
    "province": "Karnali",
    "district": "",
    "address": "",
    "hospital_type": null,
    "image_url": null,
    "source": "NSSD",
    "latitude": null,
    "longitude": null
  },
  {
    "name": "Ghodaghodi Hospital Pvt.Ltd",
    "province": "Karnali",
    "district": "",
    "address": "",
    "hospital_type": null,
    "image_url": null,
    "source": "NSSD",
    "latitude": null,
    "longitude": null
  },
  {
    "name": "कोप्ची शहरी स्वास्थ्य केन्द्र",
    "province": "Karnali",
    "district": "Surkhet",
    "address": "",
    "hospital_type": "hospital",
    "image_url": null,
    "source": "HDX_OSM",
    "latitude": 28.424368,
    "longitude": 81.844351
  },
  {
    "name": "Harati mata, Chamati",
    "province": "Bagmati",
    "district": "Kathmandu",
    "address": "",
    "hospital_type": "doctors",
    "image_url": null,
    "source": "HDX_OSM",
    "latitude": 27.717097,
    "longitude": 85.298538
  },
  {
    "name": "Khowpa Home Health Care Center",
    "province": "Bagmati",
    "district": "Bhaktapur",
    "address": "",
    "hospital_type": "clinic",
    "image_url": null,
    "source": "HDX_OSM",
    "latitude": 27.675149,
    "longitude": 85.437011
  },
  {
    "name": "Damak Red Cross Society",
    "province": "Koshi",
    "district": "Jhapa",
    "address": "",
    "hospital_type": "hospital",
    "image_url": null,
    "source": "HDX_OSM",
    "latitude": 26.656579,
    "longitude": 87.703874
  },
  {
    "name": "Kathmandu Institute of Child Health (KIOCH)",
    "province": "Koshi",
    "district": "Jhapa",
    "address": "",
    "hospital_type": "hospital",
    "image_url": null,
    "source": "HDX_OSM",
    "latitude": 26.656964,
    "longitude": 87.704134
  },
  {
    "name": "Kakrebihar Dental Clinic",
    "province": "Karnali",
    "district": "Surkhet",
    "address": "",
    "hospital_type": "dentist",
    "image_url": null,
    "source": "HDX_OSM",
    "latitude": 28.791895,
    "longitude": 81.3891
  },
  {
    "name": "Sagarmatha Dental Clinic",
    "province": "Gandaki",
    "district": "Tanahu",
    "address": "Shuklagandaki Municipality",
    "hospital_type": "dentist",
    "image_url": null,
    "source": "HDX_OSM",
    "latitude": 28.055087,
    "longitude": 84.072596
  },
  {
    "name": "Community Health Unit, Simta Chaur",
    "province": "Karnali",
    "district": "Surkhet",
    "address": "",
    "hospital_type": "clinic",
    "image_url": null,
    "source": "HDX_OSM",
    "latitude": 28.862985,
    "longitude": 81.451768
  },
  {
    "name": "Dulatthai Basic Health Service Center",
    "province": "Karnali",
    "district": "Surkhet",
    "address": "",
    "hospital_type": "clinic",
    "image_url": null,
    "source": "HDX_OSM",
    "latitude": 28.813818,
    "longitude": 81.372196
  },
  {
    "name": "Hasegaun Basic Health Service Center",
    "province": "Karnali",
    "district": "Surkhet",
    "address": "",
    "hospital_type": "clinic",
    "image_url": null,
    "source": "HDX_OSM",
    "latitude": 28.815339,
    "longitude": 81.476668
  },
  {
    "name": "Baraiche Basic Health Post",
    "province": "Karnali",
    "district": "Surkhet",
    "address": "",
    "hospital_type": "clinic",
    "image_url": null,
    "source": "HDX_OSM",
    "latitude": 28.80006,
    "longitude": 81.409436
  },
  {
    "name": "Babiyachaur Health Post",
    "province": "Karnali",
    "district": "Surkhet",
    "address": "",
    "hospital_type": "clinic",
    "image_url": null,
    "source": "HDX_OSM",
    "latitude": 28.796771,
    "longitude": 81.391645
  },
  {
    "name": "Sambanda Polyclinic and Dygnostic Center",
    "province": "Karnali",
    "district": "Surkhet",
    "address": "",
    "hospital_type": "clinic",
    "image_url": null,
    "source": "HDX_OSM",
    "latitude": 28.793662,
    "longitude": 81.384965
  },
  {
    "name": "Chhapre Health Post",
    "province": "Karnali",
    "district": "Surkhet",
    "address": "",
    "hospital_type": "clinic",
    "image_url": null,
    "source": "HDX_OSM",
    "latitude": 28.889953,
    "longitude": 81.415087
  },
  {
    "name": "Community Health Unit, Paisara",
    "province": "Karnali",
    "district": "Surkhet",
    "address": "",
    "hospital_type": "clinic",
    "image_url": null,
    "source": "HDX_OSM",
    "latitude": 28.866323,
    "longitude": 81.432394
  },
  {
    "name": "Community Health Unit, Sanne daha",
    "province": "Karnali",
    "district": "Surkhet",
    "address": "",
    "hospital_type": "clinic",
    "image_url": null,
    "source": "HDX_OSM",
    "latitude": 28.839574,
    "longitude": 81.382882
  },
  {
    "name": "Chature Basic Health Service Center",
    "province": "Karnali",
    "district": "Surkhet",
    "address": "",
    "hospital_type": "clinic",
    "image_url": null,
    "source": "HDX_OSM",
    "latitude": 28.811245,
    "longitude": 81.39608
  },
  {
    "name": "Latikanda Community Health Unit",
    "province": "Karnali",
    "district": "Surkhet",
    "address": "",
    "hospital_type": "clinic",
    "image_url": null,
    "source": "HDX_OSM",
    "latitude": 28.84301,
    "longitude": 81.417191
  },
  {
    "name": "Tokma Basic Health Care Center",
    "province": "Karnali",
    "district": "Surkhet",
    "address": "",
    "hospital_type": "clinic",
    "image_url": null,
    "source": "HDX_OSM",
    "latitude": 28.790619,
    "longitude": 81.414675
  },
  {
    "name": "Primary Health Post, Salkot",
    "province": "Karnali",
    "district": "Surkhet",
    "address": "",
    "hospital_type": "clinic",
    "image_url": null,
    "source": "HDX_OSM",
    "latitude": 28.793203,
    "longitude": 81.430547
  },
  {
    "name": "Dr Pradeep Neupane house",
    "province": "Bagmati",
    "district": "Chitwan",
    "address": "",
    "hospital_type": "doctor",
    "image_url": null,
    "source": "HDX_OSM",
    "latitude": 27.652028,
    "longitude": 84.422099
  },
  {
    "name": "भालुवाङ अस्पताल",
    "province": "Lumbini",
    "district": "Dang",
    "address": "भालुवाङ",
    "hospital_type": "hospital",
    "image_url": null,
    "source": "HDX_OSM",
    "latitude": 27.843592,
    "longitude": 82.770022
  },
  {
    "name": "Subhalav Dental Clinic",
    "province": "Bagmati",
    "district": "Lalitpur",
    "address": "",
    "hospital_type": "dentist",
    "image_url": null,
    "source": "HDX_OSM",
    "latitude": 27.66756,
    "longitude": 85.322807
  },
  {
    "name": "Ziya Health Care and Diagnostic Center Polyclinic Pathology and Shahjan Pharmacy",
    "province": "Lumbini",
    "district": "Rupandehi",
    "address": "",
    "hospital_type": "yes",
    "image_url": null,
    "source": "HDX_OSM",
    "latitude": 27.476557,
    "longitude": 83.471672
  },
  {
    "name": "Kandu Pharmacy",
    "province": "",
    "district": "",
    "address": "",
    "hospital_type": "clinic",
    "image_url": null,
    "source": "HDX_OSM",
    "latitude": 27.476339,
    "longitude": 83.471917
  },
  {
    "name": "HRL & Clinic",
    "province": "Bagmati",
    "district": "Lalitpur",
    "address": "",
    "hospital_type": "clinic",
    "image_url": null,
    "source": "HDX_OSM",
    "latitude": 27.66703,
    "longitude": 85.324299
  },
  {
    "name": "Ghatgau HP",
    "province": "Karnali",
    "district": "Surkhet",
    "address": "",
    "hospital_type": "hospital",
    "image_url": null,
    "source": "HDX_OSM",
    "latitude": 28.757376,
    "longitude": 81.261873
  },
  {
    "name": "Koiralbas Community Health Service",
    "province": "Karnali",
    "district": "Surkhet",
    "address": "",
    "hospital_type": "hospital",
    "image_url": null,
    "source": "HDX_OSM",
    "latitude": 28.910459,
    "longitude": 81.310773
  },
  {
    "name": "Dhamidanda Basic Health Service Center",
    "province": "Karnali",
    "district": "Surkhet",
    "address": "",
    "hospital_type": "clinic",
    "image_url": null,
    "source": "HDX_OSM",
    "latitude": 28.842726,
    "longitude": 81.304619
  },
  {
    "name": "Kumala Community Health Service",
    "province": "Karnali",
    "district": "Surkhet",
    "address": "",
    "hospital_type": "clinic",
    "image_url": null,
    "source": "HDX_OSM",
    "latitude": 28.791876,
    "longitude": 81.241075
  },
  {
    "name": "लक्ष्मीपुर स्वास्थ्य चौकी",
    "province": "Lumbini",
    "district": "Dang",
    "address": "",
    "hospital_type": "hospital",
    "image_url": null,
    "source": "HDX_OSM",
    "latitude": 28.076786,
    "longitude": 82.315192
  },
  {
    "name": "Mayataal Basic Health Service Center",
    "province": "Karnali",
    "district": "Surkhet",
    "address": "",
    "hospital_type": "hospital",
    "image_url": null,
    "source": "HDX_OSM",
    "latitude": 28.840333,
    "longitude": 81.269903
  },
  {
    "name": "Salma Basic Helth Service Center",
    "province": "Karnali",
    "district": "Surkhet",
    "address": "",
    "hospital_type": "hospital",
    "image_url": null,
    "source": "HDX_OSM",
    "latitude": 28.875045,
    "longitude": 81.33245
  },
  {
    "name": "Gutu Health Post",
    "province": "Karnali",
    "district": "Surkhet",
    "address": "",
    "hospital_type": "hospital",
    "image_url": null,
    "source": "HDX_OSM",
    "latitude": 28.846882,
    "longitude": 81.315188
  },
  {
    "name": "Raga Basic Health Service Center",
    "province": "Karnali",
    "district": "Surkhet",
    "address": "",
    "hospital_type": "clinic",
    "image_url": null,
    "source": "HDX_OSM",
    "latitude": 28.784016,
    "longitude": 81.324309
  },
  {
    "name": "Siddhi Dental Care Pvt.Ltd",
    "province": "Bagmati",
    "district": "Bhaktapur",
    "address": "",
    "hospital_type": "dentist",
    "image_url": null,
    "source": "HDX_OSM",
    "latitude": 27.674414,
    "longitude": 85.371852
  },
  {
    "name": "Health post",
    "province": "Lumbini",
    "district": "Kapilbastu",
    "address": "",
    "hospital_type": "clinic",
    "image_url": null,
    "source": "HDX_OSM",
    "latitude": 27.519945,
    "longitude": 83.167283
  },
  {
    "name": "Medical Hall",
    "province": "Gandaki",
    "district": "Lamjung",
    "address": "",
    "hospital_type": "clinic",
    "image_url": null,
    "source": "HDX_OSM",
    "latitude": 28.2311,
    "longitude": 84.377277
  },
  {
    "name": "Taal Barahi Dental Care Centre",
    "province": "Gandaki",
    "district": "Lamjung",
    "address": "",
    "hospital_type": "dentist",
    "image_url": null,
    "source": "HDX_OSM",
    "latitude": 28.23124,
    "longitude": 84.37739
  },
  {
    "name": "Baspani Health Post",
    "province": "Karnali",
    "district": "Surkhet",
    "address": "",
    "hospital_type": "hospital",
    "image_url": null,
    "source": "HDX_OSM",
    "latitude": 28.864806,
    "longitude": 81.084402
  },
  {
    "name": "Sobhanchaur Community Health Center",
    "province": "Karnali",
    "district": "Surkhet",
    "address": "",
    "hospital_type": "hospital",
    "image_url": null,
    "source": "HDX_OSM",
    "latitude": 28.830927,
    "longitude": 81.191062
  },
  {
    "name": "Siddhartha City Hospital Pvt. Ltd.",
    "province": "Lumbini",
    "district": "Rupandehi",
    "address": "",
    "hospital_type": "hospital",
    "image_url": null,
    "source": "HDX_OSM",
    "latitude": 27.490435,
    "longitude": 83.448827
  },
  {
    "name": "Kanda Health Post",
    "province": "Sudurpashchim",
    "district": "Bajhang",
    "address": "",
    "hospital_type": "hospital",
    "image_url": null,
    "source": "HDX_OSM",
    "latitude": 29.697779,
    "longitude": 81.368116
  },
  {
    "name": "Talkot Hospital",
    "province": "Sudurpashchim",
    "district": "Bajhang",
    "address": "",
    "hospital_type": "hospital",
    "image_url": null,
    "source": "HDX_OSM",
    "latitude": 29.621305,
    "longitude": 81.200907
  },
  {
    "name": "Talagaun Basic Health Service Center",
    "province": "Karnali",
    "district": "Surkhet",
    "address": "",
    "hospital_type": "hospital",
    "image_url": null,
    "source": "HDX_OSM",
    "latitude": 28.961466,
    "longitude": 81.089283
  },
  {
    "name": "Ratu Healthpost Khop Kendra",
    "province": "Karnali",
    "district": "Surkhet",
    "address": "Birendranagar",
    "hospital_type": "hospital",
    "image_url": null,
    "source": "HDX_OSM",
    "latitude": 28.645857,
    "longitude": 81.682612
  },
  {
    "name": "Balaudi Health Post",
    "province": "Sudurpashchim",
    "district": "Bajhang",
    "address": "",
    "hospital_type": "hospital",
    "image_url": null,
    "source": "HDX_OSM",
    "latitude": 29.767625,
    "longitude": 81.279546
  },
  {
    "name": "Dhanras Basic Health Service Center",
    "province": "Karnali",
    "district": "Surkhet",
    "address": "",
    "hospital_type": "hospital",
    "image_url": null,
    "source": "HDX_OSM",
    "latitude": 28.933247,
    "longitude": 81.077168
  },
  {
    "name": "Apson Piya Medical Hall",
    "province": "Gandaki",
    "district": "Lamjung",
    "address": "",
    "hospital_type": "clinic",
    "image_url": null,
    "source": "HDX_OSM",
    "latitude": 28.231544,
    "longitude": 84.377367
  },
  {
    "name": "Betan Health Post",
    "province": "Karnali",
    "district": "Surkhet",
    "address": "",
    "hospital_type": "hospital",
    "image_url": null,
    "source": "HDX_OSM",
    "latitude": 28.884895,
    "longitude": 81.169245
  },
  {
    "name": "Bidushi Medical Hall",
    "province": "Lumbini",
    "district": "Banke",
    "address": "",
    "hospital_type": "clinic",
    "image_url": null,
    "source": "HDX_OSM",
    "latitude": 28.055516,
    "longitude": 81.616137
  },
  {
    "name": "Maha Guthi Polyclinic",
    "province": "Bagmati",
    "district": "Kathmandu",
    "address": "",
    "hospital_type": "clinic",
    "image_url": null,
    "source": "HDX_OSM",
    "latitude": 27.717656,
    "longitude": 85.306133
  },
  {
    "name": "महिला स्वास्थ्य स्वयंसेविका",
    "province": "Lumbini",
    "district": "Dang",
    "address": "",
    "hospital_type": "yes",
    "image_url": null,
    "source": "HDX_OSM",
    "latitude": 27.837627,
    "longitude": 82.628049
  },
  {
    "name": "आधारभुत स्वास्थ्य सेवा केन्द्र",
    "province": "Lumbini",
    "district": "Dang",
    "address": "राप्ती गाउँपालिका दाङ",
    "hospital_type": "yes",
    "image_url": null,
    "source": "HDX_OSM",
    "latitude": 27.837977,
    "longitude": 82.649857
  },
  {
    "name": "महिला स्वास्थ्य स्वयमसेविका",
    "province": "Lumbini",
    "district": "Dang",
    "address": "राप्ती गाउँपालिका दाङ",
    "hospital_type": "yes",
    "image_url": null,
    "source": "HDX_OSM",
    "latitude": 27.831962,
    "longitude": 82.631901
  },
  {
    "name": "Kunpen Tibetan Medical Center",
    "province": "Bagmati",
    "district": "Kathmandu",
    "address": "",
    "hospital_type": "centre",
    "image_url": null,
    "source": "HDX_OSM",
    "latitude": 27.721551,
    "longitude": 85.361393
  },
  {
    "name": "Aadharbhut Health Center",
    "province": "Karnali",
    "district": "Surkhet",
    "address": "Birendranagar",
    "hospital_type": "hospital",
    "image_url": null,
    "source": "HDX_OSM",
    "latitude": 28.602349,
    "longitude": 81.597362
  },
  {
    "name": "Aarogya Pharmacy and Chaudhary Medical",
    "province": "Lumbini",
    "district": "Rupandehi",
    "address": "",
    "hospital_type": "clinic",
    "image_url": null,
    "source": "HDX_OSM",
    "latitude": 27.476772,
    "longitude": 83.470677
  },
  {
    "name": "Vijay Health Clinic",
    "province": "Lumbini",
    "district": "Rupandehi",
    "address": "",
    "hospital_type": "clinic",
    "image_url": null,
    "source": "HDX_OSM",
    "latitude": 27.50522,
    "longitude": 83.353334
  },
  {
    "name": "राप्ती आयुर्वेदिक अस्पताल",
    "province": "Lumbini",
    "district": "Dang",
    "address": "",
    "hospital_type": "hospital",
    "image_url": null,
    "source": "HDX_OSM",
    "latitude": 28.16751,
    "longitude": 82.140536
  },
  {
    "name": "मनमोहन मेमोरियल अस्पताल",
    "province": "Bagmati",
    "district": "Kathmandu",
    "address": "",
    "hospital_type": "hospital",
    "image_url": null,
    "source": "HDX_OSM",
    "latitude": 27.717939,
    "longitude": 85.311244
  },
  {
    "name": "सुब्बा मेडिकल सेन्टर प्रा. लि",
    "province": "Bagmati",
    "district": "Kathmandu",
    "address": "",
    "hospital_type": "hospital",
    "image_url": null,
    "source": "HDX_OSM",
    "latitude": 27.73782,
    "longitude": 85.323041
  },
  {
    "name": "नेपाल डायग्नोस्टिक सेन्टर प्रा. लि.",
    "province": "Bagmati",
    "district": "Kathmandu",
    "address": "",
    "hospital_type": "hospital",
    "image_url": null,
    "source": "HDX_OSM",
    "latitude": 27.701058,
    "longitude": 85.311634
  },
  {
    "name": "आरोग्य स्वस्थ्य सदन",
    "province": "Bagmati",
    "district": "Lalitpur",
    "address": "",
    "hospital_type": "hospital",
    "image_url": null,
    "source": "HDX_OSM",
    "latitude": 27.673695,
    "longitude": 85.31184
  },
  {
    "name": "Community Health Shobha",
    "province": "Karnali",
    "district": "Mugu",
    "address": "",
    "hospital_type": "clinic",
    "image_url": null,
    "source": "HDX_OSM",
    "latitude": 29.53006,
    "longitude": 82.226385
  },
  {
    "name": "Jumlakot Health Post",
    "province": "Karnali",
    "district": "Jumla",
    "address": "",
    "hospital_type": "hospital",
    "image_url": null,
    "source": "HDX_OSM",
    "latitude": 29.194757,
    "longitude": 81.974357
  },
  {
    "name": "Lamabagar birthing center",
    "province": "Karnali",
    "district": "Jumla",
    "address": "",
    "hospital_type": "hospital",
    "image_url": null,
    "source": "HDX_OSM",
    "latitude": 29.154288,
    "longitude": 82.07338
  },
  {
    "name": "Ishwor Health Service",
    "province": "Karnali",
    "district": "Jumla",
    "address": "",
    "hospital_type": "clinic",
    "image_url": null,
    "source": "HDX_OSM",
    "latitude": 29.243166,
    "longitude": 82.105675
  },
  {
    "name": "Private Health Clinic",
    "province": "Karnali",
    "district": "Jumla",
    "address": "",
    "hospital_type": "clinic",
    "image_url": null,
    "source": "HDX_OSM",
    "latitude": 29.2257,
    "longitude": 81.94966
  },
  {
    "name": "Community health unit",
    "province": "Karnali",
    "district": "Jumla",
    "address": "",
    "hospital_type": "hospital",
    "image_url": null,
    "source": "HDX_OSM",
    "latitude": 29.252472,
    "longitude": 82.013444
  },
  {
    "name": "Latikoili Healthpost",
    "province": "Karnali",
    "district": "Surkhet",
    "address": "Birendranagar",
    "hospital_type": "hospital",
    "image_url": null,
    "source": "HDX_OSM",
    "latitude": 28.57543,
    "longitude": 81.606238
  },
  {
    "name": "Karnali Care Hospital",
    "province": "Karnali",
    "district": "Surkhet",
    "address": "Birendranagar",
    "hospital_type": "hospital",
    "image_url": null,
    "source": "HDX_OSM",
    "latitude": 28.598384,
    "longitude": 81.602037
  },
  {
    "name": "Naulapur Healthpost",
    "province": "Karnali",
    "district": "Surkhet",
    "address": "Birendranagar",
    "hospital_type": "hospital",
    "image_url": null,
    "source": "HDX_OSM",
    "latitude": 28.591712,
    "longitude": 81.624639
  },
  {
    "name": "Himani Health Clinic",
    "province": "Karnali",
    "district": "Surkhet",
    "address": "Birendranagar",
    "hospital_type": "clinic",
    "image_url": null,
    "source": "HDX_OSM",
    "latitude": 28.598424,
    "longitude": 81.580011
  },
  {
    "name": "Siddhartha Health Clinic Centre",
    "province": "Lumbini",
    "district": "Rupandehi",
    "address": "",
    "hospital_type": "clinic",
    "image_url": null,
    "source": "HDX_OSM",
    "latitude": 27.492245,
    "longitude": 83.313025
  },
  {
    "name": "Maya Devi Polyclinic",
    "province": "Lumbini",
    "district": "Rupandehi",
    "address": "",
    "hospital_type": "clinic",
    "image_url": null,
    "source": "HDX_OSM",
    "latitude": 27.505259,
    "longitude": 83.352921
  },
  {
    "name": "माता मनकामना पोलिक्लिनिक",
    "province": "Lumbini",
    "district": "Dang",
    "address": "",
    "hospital_type": "clinic",
    "image_url": null,
    "source": "HDX_OSM",
    "latitude": 28.188506,
    "longitude": 82.134056
  },
  {
    "name": "MHP Myalpokhari SHP",
    "province": "Lumbini",
    "district": "Gulmi",
    "address": "",
    "hospital_type": "hospital",
    "image_url": null,
    "source": "HDX_OSM",
    "latitude": 28.17043,
    "longitude": 83.0648
  },
  {
    "name": "MHP Paudhi SHP",
    "province": "Lumbini",
    "district": "Gulmi",
    "address": "",
    "hospital_type": "hospital",
    "image_url": null,
    "source": "HDX_OSM",
    "latitude": 28.21747,
    "longitude": 83.22993
  },
  {
    "name": "MHP Pipaldhara HP",
    "province": "Lumbini",
    "district": "Gulmi",
    "address": "",
    "hospital_type": "hospital",
    "image_url": null,
    "source": "HDX_OSM",
    "latitude": 28.08575,
    "longitude": 83.13937
  },
  {
    "name": "Sijal Pharmacy",
    "province": "Lumbini",
    "district": "Rupandehi",
    "address": "",
    "hospital_type": "clinic",
    "image_url": null,
    "source": "HDX_OSM",
    "latitude": 27.519183,
    "longitude": 83.454507
  },
  {
    "name": "MHP Sirseni SHP",
    "province": "Lumbini",
    "district": "Gulmi",
    "address": "",
    "hospital_type": "hospital",
    "image_url": null,
    "source": "HDX_OSM",
    "latitude": 28.18656,
    "longitude": 83.09407
  },
  {
    "name": "MHP Wagla SHP",
    "province": "Lumbini",
    "district": "Gulmi",
    "address": "",
    "hospital_type": "hospital",
    "image_url": null,
    "source": "HDX_OSM",
    "latitude": 28.15858,
    "longitude": 83.11575
  },
  {
    "name": "Indra Pharmacy  and Health Clinic",
    "province": "Lumbini",
    "district": "Rupandehi",
    "address": "",
    "hospital_type": "clinic",
    "image_url": null,
    "source": "HDX_OSM",
    "latitude": 27.518569,
    "longitude": 83.449991
  },
  {
    "name": "Sairam Homiyo Pharmacy",
    "province": "Lumbini",
    "district": "Rupandehi",
    "address": "",
    "hospital_type": "clinic",
    "image_url": null,
    "source": "HDX_OSM",
    "latitude": 27.516386,
    "longitude": 83.45168
  },
  {
    "name": "Aarogya Hospital",
    "province": "Lumbini",
    "district": "Rupandehi",
    "address": "",
    "hospital_type": "hospital",
    "image_url": null,
    "source": "HDX_OSM",
    "latitude": 27.52716,
    "longitude": 83.455802
  },
  {
    "name": "Bhim Hospital",
    "province": "Lumbini",
    "district": "Rupandehi",
    "address": "",
    "hospital_type": "hospital",
    "image_url": null,
    "source": "HDX_OSM",
    "latitude": 27.506159,
    "longitude": 83.454439
  },
  {
    "name": "Bindhabashini Health Clinic",
    "province": "Lumbini",
    "district": "Rupandehi",
    "address": "",
    "hospital_type": "clinic",
    "image_url": null,
    "source": "HDX_OSM",
    "latitude": 27.522071,
    "longitude": 83.455151
  },
  {
    "name": "Deluxe Pharma",
    "province": "Lumbini",
    "district": "Rupandehi",
    "address": "",
    "hospital_type": "clinic",
    "image_url": null,
    "source": "HDX_OSM",
    "latitude": 27.506238,
    "longitude": 83.453414
  },
  {
    "name": "Sanvi Pharm",
    "province": "Lumbini",
    "district": "Rupandehi",
    "address": "",
    "hospital_type": "clinic",
    "image_url": null,
    "source": "HDX_OSM",
    "latitude": 27.516231,
    "longitude": 83.452489
  },
  {
    "name": "Aashank Medical Hall",
    "province": "Lumbini",
    "district": "Rupandehi",
    "address": "",
    "hospital_type": "clinic",
    "image_url": null,
    "source": "HDX_OSM",
    "latitude": 27.516249,
    "longitude": 83.45222
  },
  {
    "name": "Lumbini Dental Clinic",
    "province": "Lumbini",
    "district": "Rupandehi",
    "address": "",
    "hospital_type": "dentist",
    "image_url": null,
    "source": "HDX_OSM",
    "latitude": 27.506014,
    "longitude": 83.45354
  },
  {
    "name": "Bijaya Health Care Center and Bijaya Pharmacy",
    "province": "Lumbini",
    "district": "Rupandehi",
    "address": "",
    "hospital_type": "clinic",
    "image_url": null,
    "source": "HDX_OSM",
    "latitude": 27.503535,
    "longitude": 83.453788
  },
  {
    "name": "Modern pharmacy",
    "province": "Lumbini",
    "district": "Rupandehi",
    "address": "",
    "hospital_type": "clinic",
    "image_url": null,
    "source": "HDX_OSM",
    "latitude": 27.516326,
    "longitude": 83.452762
  },
  {
    "name": "Hamro Dental Clinic",
    "province": "Lumbini",
    "district": "Rupandehi",
    "address": "",
    "hospital_type": "dentist",
    "image_url": null,
    "source": "HDX_OSM",
    "latitude": 27.514163,
    "longitude": 83.453984
  },
  {
    "name": "NIschal Pharmacy",
    "province": "Lumbini",
    "district": "Rupandehi",
    "address": "",
    "hospital_type": "clinic",
    "image_url": null,
    "source": "HDX_OSM",
    "latitude": 27.512603,
    "longitude": 83.45447
  },
  {
    "name": "Medico Pharma",
    "province": "Lumbini",
    "district": "Rupandehi",
    "address": "",
    "hospital_type": "clinic",
    "image_url": null,
    "source": "HDX_OSM",
    "latitude": 27.510342,
    "longitude": 83.449228
  },
  {
    "name": "Melcham Health Post",
    "province": "Karnali",
    "district": "Humla",
    "address": "",
    "hospital_type": "birthing_centre",
    "image_url": null,
    "source": "HDX_OSM",
    "latitude": 29.764653,
    "longitude": 82.036269
  },
  {
    "name": "Jasmine Aekha Upachar Kendra and Chasma Pasal",
    "province": "Lumbini",
    "district": "Rupandehi",
    "address": "",
    "hospital_type": "optometrist",
    "image_url": null,
    "source": "HDX_OSM",
    "latitude": 27.49138,
    "longitude": 83.306065
  },
  {
    "name": "Basic urban health centerr",
    "province": "Karnali",
    "district": "Surkhet",
    "address": "Lekbeshi",
    "hospital_type": "hospital",
    "image_url": null,
    "source": "HDX_OSM",
    "latitude": 28.491962,
    "longitude": 81.784637
  },
  {
    "name": "Lumbini Diagnostic & Pathology",
    "province": "Lumbini",
    "district": "Rupandehi",
    "address": "",
    "hospital_type": "laboratory",
    "image_url": null,
    "source": "HDX_OSM",
    "latitude": 27.518718,
    "longitude": 83.449542
  },
  {
    "name": "Relief Pathology",
    "province": "Lumbini",
    "district": "Rupandehi",
    "address": "",
    "hospital_type": "laboratory",
    "image_url": null,
    "source": "HDX_OSM",
    "latitude": 27.518569,
    "longitude": 83.450006
  },
  {
    "name": "Ultrasound/Video X-ray",
    "province": "Lumbini",
    "district": "Rupandehi",
    "address": "",
    "hospital_type": "laboratory",
    "image_url": null,
    "source": "HDX_OSM",
    "latitude": 27.516303,
    "longitude": 83.452312
  },
  {
    "name": "Buddha Xray DIgital Sewa",
    "province": "Lumbini",
    "district": "Rupandehi",
    "address": "",
    "hospital_type": "yes",
    "image_url": null,
    "source": "HDX_OSM",
    "latitude": 27.506125,
    "longitude": 83.454552
  },
  {
    "name": "Siddhartha pathology",
    "province": "Lumbini",
    "district": "Rupandehi",
    "address": "",
    "hospital_type": "yes",
    "image_url": null,
    "source": "HDX_OSM",
    "latitude": 27.506181,
    "longitude": 83.454142
  },
  {
    "name": "Rosis Pyathology",
    "province": "Lumbini",
    "district": "Rupandehi",
    "address": "",
    "hospital_type": "laboratory",
    "image_url": null,
    "source": "HDX_OSM",
    "latitude": 27.506236,
    "longitude": 83.4534
  },
  {
    "name": "Rawol Ultrasound Sewa",
    "province": "Lumbini",
    "district": "Rupandehi",
    "address": "",
    "hospital_type": "laboratory",
    "image_url": null,
    "source": "HDX_OSM",
    "latitude": 27.506238,
    "longitude": 83.453409
  },
  {
    "name": "Pashupati Lab",
    "province": "Lumbini",
    "district": "Rupandehi",
    "address": "",
    "hospital_type": "laboratory",
    "image_url": null,
    "source": "HDX_OSM",
    "latitude": 27.50627,
    "longitude": 83.452882
  },
  {
    "name": "Tata Pyathology Lab",
    "province": "Lumbini",
    "district": "Rupandehi",
    "address": "",
    "hospital_type": "laboratory",
    "image_url": null,
    "source": "HDX_OSM",
    "latitude": 27.516272,
    "longitude": 83.452399
  },
  {
    "name": "Saraf Health care and teaching Hosital",
    "province": "Lumbini",
    "district": "Rupandehi",
    "address": "",
    "hospital_type": "yes",
    "image_url": null,
    "source": "HDX_OSM",
    "latitude": 27.51722,
    "longitude": 83.449964
  },
  {
    "name": "Pristine Dental",
    "province": "Lumbini",
    "district": "Rupandehi",
    "address": "",
    "hospital_type": "dentist",
    "image_url": null,
    "source": "HDX_OSM",
    "latitude": 27.512097,
    "longitude": 83.452457
  },
  {
    "name": "Satya Omkar Dental Home",
    "province": "Lumbini",
    "district": "Rupandehi",
    "address": "",
    "hospital_type": "dentist",
    "image_url": null,
    "source": "HDX_OSM",
    "latitude": 27.514878,
    "longitude": 83.453163
  },
  {
    "name": "Medi Max Pharmacy",
    "province": "Lumbini",
    "district": "Rupandehi",
    "address": "",
    "hospital_type": "clinic",
    "image_url": null,
    "source": "HDX_OSM",
    "latitude": 27.512155,
    "longitude": 83.454051
  },
  {
    "name": "Star Dental Clinic",
    "province": "Lumbini",
    "district": "Rupandehi",
    "address": "",
    "hospital_type": "dentist",
    "image_url": null,
    "source": "HDX_OSM",
    "latitude": 27.515843,
    "longitude": 83.453527
  },
  {
    "name": "Buddha Dental Clinic",
    "province": "Lumbini",
    "district": "Rupandehi",
    "address": "",
    "hospital_type": "dentist",
    "image_url": null,
    "source": "HDX_OSM",
    "latitude": 27.514613,
    "longitude": 83.453223
  },
  {
    "name": "Shraddha Pharmacy",
    "province": "Lumbini",
    "district": "Rupandehi",
    "address": "",
    "hospital_type": "clinic",
    "image_url": null,
    "source": "HDX_OSM",
    "latitude": 27.514644,
    "longitude": 83.453225
  },
  {
    "name": "Shivam Clinic",
    "province": "Lumbini",
    "district": "Rupandehi",
    "address": "",
    "hospital_type": "clinic",
    "image_url": null,
    "source": "HDX_OSM",
    "latitude": 27.514725,
    "longitude": 83.453243
  },
  {
    "name": "Everest Dental Clinic",
    "province": "Lumbini",
    "district": "Rupandehi",
    "address": "",
    "hospital_type": "dentist",
    "image_url": null,
    "source": "HDX_OSM",
    "latitude": 27.514277,
    "longitude": 83.453347
  },
  {
    "name": "New Buddha X-Ray Service",
    "province": "Lumbini",
    "district": "Rupandehi",
    "address": "",
    "hospital_type": "clinic",
    "image_url": null,
    "source": "HDX_OSM",
    "latitude": 27.516657,
    "longitude": 83.453629
  },
  {
    "name": "Rupa Medical Hall",
    "province": "Lumbini",
    "district": "Rupandehi",
    "address": "",
    "hospital_type": "clinic",
    "image_url": null,
    "source": "HDX_OSM",
    "latitude": 27.512006,
    "longitude": 83.454669
  },
  {
    "name": "Omkar Pharmacy",
    "province": "Lumbini",
    "district": "Rupandehi",
    "address": "",
    "hospital_type": "clinic",
    "image_url": null,
    "source": "HDX_OSM",
    "latitude": 27.516336,
    "longitude": 83.452989
  },
  {
    "name": "Tansen Dental Clinic",
    "province": "Lumbini",
    "district": "Rupandehi",
    "address": "",
    "hospital_type": "dentist",
    "image_url": null,
    "source": "HDX_OSM",
    "latitude": 27.517087,
    "longitude": 83.453166
  },
  {
    "name": "Medilen Pharmacy and Sarita Health Clinic",
    "province": "Lumbini",
    "district": "Rupandehi",
    "address": "",
    "hospital_type": "clinic",
    "image_url": null,
    "source": "HDX_OSM",
    "latitude": 27.50029,
    "longitude": 83.448536
  },
  {
    "name": "पुरनधारा अस्पताल",
    "province": "Lumbini",
    "district": "Dang",
    "address": "",
    "hospital_type": "nurse",
    "image_url": null,
    "source": "HDX_OSM",
    "latitude": 28.209728,
    "longitude": 82.118138
  },
  {
    "name": "प्रेम स्वास्थ्य क्लिनिक",
    "province": "Lumbini",
    "district": "Dang",
    "address": "",
    "hospital_type": "clinic",
    "image_url": null,
    "source": "HDX_OSM",
    "latitude": 28.227015,
    "longitude": 82.113035
  },
  {
    "name": "milan clinic",
    "province": "Lumbini",
    "district": "Rupandehi",
    "address": "",
    "hospital_type": "clinic",
    "image_url": null,
    "source": "HDX_OSM",
    "latitude": 27.504076,
    "longitude": 83.450218
  },
  {
    "name": "Helthpost Vajneuta",
    "province": "Sudurpashchim",
    "district": "Dadeldhura",
    "address": "",
    "hospital_type": "clinic",
    "image_url": null,
    "source": "HDX_OSM",
    "latitude": 29.342323,
    "longitude": 80.597298
  },
  {
    "name": "Sahashraling Helth Post Rai",
    "province": "Sudurpashchim",
    "district": "Dadeldhura",
    "address": "",
    "hospital_type": "clinic",
    "image_url": null,
    "source": "HDX_OSM",
    "latitude": 29.299023,
    "longitude": 80.643379
  },
  {
    "name": "New Mahendra Medical Hall",
    "province": "Lumbini",
    "district": "Rupandehi",
    "address": "",
    "hospital_type": "clinic",
    "image_url": null,
    "source": "HDX_OSM",
    "latitude": 27.506026,
    "longitude": 83.450538
  },
  {
    "name": "Shikhar Pharmacy",
    "province": "Lumbini",
    "district": "Rupandehi",
    "address": "",
    "hospital_type": "clinic",
    "image_url": null,
    "source": "HDX_OSM",
    "latitude": 27.507223,
    "longitude": 83.441631
  },
  {
    "name": "Bhairawaha Dental Care Centre",
    "province": "Lumbini",
    "district": "Rupandehi",
    "address": "",
    "hospital_type": "dentist",
    "image_url": null,
    "source": "HDX_OSM",
    "latitude": 27.516084,
    "longitude": 83.452983
  },
  {
    "name": "Jagadamba Pharmacy",
    "province": "Lumbini",
    "district": "Rupandehi",
    "address": "",
    "hospital_type": "clinic",
    "image_url": null,
    "source": "HDX_OSM",
    "latitude": 27.517598,
    "longitude": 83.452302
  },
  {
    "name": "Aakris Medical Hall",
    "province": "Lumbini",
    "district": "Rupandehi",
    "address": "",
    "hospital_type": "clinic",
    "image_url": null,
    "source": "HDX_OSM",
    "latitude": 27.517924,
    "longitude": 83.450683
  },
  {
    "name": "Fistula Center",
    "province": "Karnali",
    "district": "Surkhet",
    "address": "",
    "hospital_type": "clinic",
    "image_url": null,
    "source": "HDX_OSM",
    "latitude": 28.603832,
    "longitude": 81.601482
  },
  {
    "name": "Family Health Clinic",
    "province": "Bagmati",
    "district": "Lalitpur",
    "address": "",
    "hospital_type": "clinic",
    "image_url": null,
    "source": "HDX_OSM",
    "latitude": 27.675254,
    "longitude": 85.319287
  },
  {
    "name": "Bal Clinic",
    "province": "Lumbini",
    "district": "Rupandehi",
    "address": "",
    "hospital_type": "clinic",
    "image_url": null,
    "source": "HDX_OSM",
    "latitude": 27.504787,
    "longitude": 83.450522
  },
  {
    "name": "R.K Medical Hall",
    "province": "Lumbini",
    "district": "Rupandehi",
    "address": "",
    "hospital_type": "clinic",
    "image_url": null,
    "source": "HDX_OSM",
    "latitude": 27.484159,
    "longitude": 83.440697
  },
  {
    "name": "Rajdevi Municipality Health Post, Redcross Tole-9",
    "province": "Madhesh",
    "district": "Rautahat",
    "address": "",
    "hospital_type": "clinic",
    "image_url": null,
    "source": "HDX_OSM",
    "latitude": 26.755739,
    "longitude": 85.321297
  },
  {
    "name": "Folliderm Skin Clinic",
    "province": "Bagmati",
    "district": "Kathmandu",
    "address": "",
    "hospital_type": "clinic",
    "image_url": null,
    "source": "HDX_OSM",
    "latitude": 27.723992,
    "longitude": 85.330393
  },
  {
    "name": "जन स्वास्थ्य सेवा केन्द्र, सैना",
    "province": "Karnali",
    "district": "Kalikot",
    "address": "",
    "hospital_type": "clinic",
    "image_url": null,
    "source": "HDX_OSM",
    "latitude": 29.34899,
    "longitude": 81.760652
  },
  {
    "name": "ANB Hospital",
    "province": "Karnali",
    "district": "Kalikot",
    "address": "",
    "hospital_type": "hospital",
    "image_url": null,
    "source": "HDX_OSM",
    "latitude": 29.302577,
    "longitude": 81.751438
  },
  {
    "name": "जनस्वास्थ्य सेवा केन्द्र",
    "province": "Karnali",
    "district": "Kalikot",
    "address": "",
    "hospital_type": "clinic",
    "image_url": null,
    "source": "HDX_OSM",
    "latitude": 29.302701,
    "longitude": 81.753263
  },
  {
    "name": "स्वास्थ्य चौकी, थिर्पु",
    "province": "Karnali",
    "district": "Kalikot",
    "address": "",
    "hospital_type": "clinic",
    "image_url": null,
    "source": "HDX_OSM",
    "latitude": 29.301884,
    "longitude": 81.780061
  },
  {
    "name": "जन स्वास्थ्य सेवा केन्द्र",
    "province": "Karnali",
    "district": "Kalikot",
    "address": "",
    "hospital_type": "clinic",
    "image_url": null,
    "source": "HDX_OSM",
    "latitude": 29.35833,
    "longitude": 81.835461
  },
  {
    "name": "सामुदायिक स्वास्थ्य ईकाई धौलागोह",
    "province": "Karnali",
    "district": "Kalikot",
    "address": "",
    "hospital_type": "clinic",
    "image_url": null,
    "source": "HDX_OSM",
    "latitude": 29.355032,
    "longitude": 81.794577
  },
  {
    "name": "स्वास्थ्य चौकी धौलागोह",
    "province": "Karnali",
    "district": "Kalikot",
    "address": "",
    "hospital_type": "clinic",
    "image_url": null,
    "source": "HDX_OSM",
    "latitude": 29.343892,
    "longitude": 81.775802
  },
  {
    "name": "सामुदायिक स्वास्थ्य ईकाइ बदालकोट",
    "province": "Karnali",
    "district": "Kalikot",
    "address": "",
    "hospital_type": "clinic",
    "image_url": null,
    "source": "HDX_OSM",
    "latitude": 29.176112,
    "longitude": 81.636655
  },
  {
    "name": "आधारभूत स्वास्थ्य इकाइ",
    "province": "Karnali",
    "district": "Kalikot",
    "address": "",
    "hospital_type": "clinic",
    "image_url": null,
    "source": "HDX_OSM",
    "latitude": 29.137359,
    "longitude": 81.613783
  },
  {
    "name": "Sahari Swasthya Sanstha Pothiyahi Tole Amarpatty",
    "province": "Madhesh",
    "district": "Rautahat",
    "address": "",
    "hospital_type": "clinic",
    "image_url": null,
    "source": "HDX_OSM",
    "latitude": 26.945763,
    "longitude": 85.298767
  },
  {
    "name": "Jigadawa Beldhuswa Sawasthya Chauki",
    "province": "Madhesh",
    "district": "Rautahat",
    "address": "",
    "hospital_type": "clinic",
    "image_url": null,
    "source": "HDX_OSM",
    "latitude": 26.866053,
    "longitude": 85.273964
  },
  {
    "name": "Basanpati sawastya Chauki",
    "province": "Madhesh",
    "district": "Rautahat",
    "address": "",
    "hospital_type": "clinic",
    "image_url": null,
    "source": "HDX_OSM",
    "latitude": 26.845423,
    "longitude": 85.230583
  },
  {
    "name": "Adharbhut Swasthya Kendra",
    "province": "Madhesh",
    "district": "Rautahat",
    "address": "",
    "hospital_type": "clinic",
    "image_url": null,
    "source": "HDX_OSM",
    "latitude": 26.871569,
    "longitude": 85.278532
  },
  {
    "name": "Paroha Hospital Laukaha",
    "province": "Madhesh",
    "district": "Rautahat",
    "address": "",
    "hospital_type": "clinic",
    "image_url": null,
    "source": "HDX_OSM",
    "latitude": 26.848095,
    "longitude": 85.237854
  },
  {
    "name": "Narkatiya Sawasth Chauki",
    "province": "Madhesh",
    "district": "Rautahat",
    "address": "",
    "hospital_type": "clinic",
    "image_url": null,
    "source": "HDX_OSM",
    "latitude": 26.848759,
    "longitude": 85.202705
  },
  {
    "name": "Rampur Khap Sawasthya Chauki",
    "province": "Madhesh",
    "district": "Rautahat",
    "address": "",
    "hospital_type": "clinic",
    "image_url": null,
    "source": "HDX_OSM",
    "latitude": 26.829472,
    "longitude": 85.194794
  },
  {
    "name": "Rajpur Tulsi Health Post, Rajpur Tulsi",
    "province": "Madhesh",
    "district": "Rautahat",
    "address": "",
    "hospital_type": "clinic",
    "image_url": null,
    "source": "HDX_OSM",
    "latitude": 26.849386,
    "longitude": 85.287502
  },
  {
    "name": "Jetharhiya Health Post, Jethariya",
    "province": "Madhesh",
    "district": "Rautahat",
    "address": "",
    "hospital_type": "clinic",
    "image_url": null,
    "source": "HDX_OSM",
    "latitude": 26.867372,
    "longitude": 85.305064
  },
  {
    "name": "Jetharhiya Birthing Center, Jetharhiya",
    "province": "Madhesh",
    "district": "Rautahat",
    "address": "",
    "hospital_type": "clinic",
    "image_url": null,
    "source": "HDX_OSM",
    "latitude": 26.873411,
    "longitude": 85.298709
  },
  {
    "name": "Shivdarsan Central Hospital, Jethariya",
    "province": "Madhesh",
    "district": "Rautahat",
    "address": "",
    "hospital_type": "hospital",
    "image_url": null,
    "source": "HDX_OSM",
    "latitude": 26.874631,
    "longitude": 85.296176
  },
  {
    "name": "Sagarmatha Terai Hospital, Jethariya",
    "province": "Madhesh",
    "district": "Rautahat",
    "address": "",
    "hospital_type": "hospital",
    "image_url": null,
    "source": "HDX_OSM",
    "latitude": 26.871583,
    "longitude": 85.295436
  },
  {
    "name": "Pashu Sewa,Pachim Tole",
    "province": "Madhesh",
    "district": "Rautahat",
    "address": "",
    "hospital_type": "clinic",
    "image_url": null,
    "source": "HDX_OSM",
    "latitude": 26.825796,
    "longitude": 85.292331
  },
  {
    "name": "Katahariya Mahila Tatha Bal Hospital-5,Katahariya Bazaar,Katahariya MP",
    "province": "Madhesh",
    "district": "Rautahat",
    "address": "",
    "hospital_type": "clinic",
    "image_url": null,
    "source": "HDX_OSM",
    "latitude": 26.979011,
    "longitude": 85.240578
  },
  {
    "name": "Katahariya-9,Health Post, Katahariya MP",
    "province": "Madhesh",
    "district": "Rautahat",
    "address": "",
    "hospital_type": "clinic",
    "image_url": null,
    "source": "HDX_OSM",
    "latitude": 26.990881,
    "longitude": 85.26902
  },
  {
    "name": "Katahariya-6,Basic Health Post, Katahariya MP",
    "province": "Madhesh",
    "district": "Rautahat",
    "address": "",
    "hospital_type": "clinic",
    "image_url": null,
    "source": "HDX_OSM",
    "latitude": 26.960991,
    "longitude": 85.275764
  },
  {
    "name": "Laxmipur Belbichawa Ayurveda Aushadhalaya",
    "province": "Madhesh",
    "district": "Rautahat",
    "address": "",
    "hospital_type": "clinic",
    "image_url": null,
    "source": "HDX_OSM",
    "latitude": 26.759312,
    "longitude": 85.297699
  },
  {
    "name": "Community Health Post, Hajminiya Pathai",
    "province": "Madhesh",
    "district": "Rautahat",
    "address": "",
    "hospital_type": "clinic",
    "image_url": null,
    "source": "HDX_OSM",
    "latitude": 26.785151,
    "longitude": 85.308228
  },
  {
    "name": "Basatpur Ayurveda Ausadhalaya, Basatpur",
    "province": "Madhesh",
    "district": "Rautahat",
    "address": "",
    "hospital_type": "clinic",
    "image_url": null,
    "source": "HDX_OSM",
    "latitude": 26.790274,
    "longitude": 85.308334
  },
  {
    "name": "Hajminiya Heath Post, Hajminiya Durbar",
    "province": "Madhesh",
    "district": "Rautahat",
    "address": "",
    "hospital_type": "clinic",
    "image_url": null,
    "source": "HDX_OSM",
    "latitude": 26.788277,
    "longitude": 85.301262
  },
  {
    "name": "Dahri Health Post, Motipur",
    "province": "Madhesh",
    "district": "Rautahat",
    "address": "",
    "hospital_type": "clinic",
    "image_url": null,
    "source": "HDX_OSM",
    "latitude": 26.811411,
    "longitude": 85.301773
  },
  {
    "name": "Jhunkhunwa Health Post, Bhagwati Pathara",
    "province": "Madhesh",
    "district": "Rautahat",
    "address": "",
    "hospital_type": "clinic",
    "image_url": null,
    "source": "HDX_OSM",
    "latitude": 26.797344,
    "longitude": 85.304268
  },
  {
    "name": "Basatpur Health Post, Basatpur",
    "province": "Madhesh",
    "district": "Rautahat",
    "address": "",
    "hospital_type": "clinic",
    "image_url": null,
    "source": "HDX_OSM",
    "latitude": 26.791998,
    "longitude": 85.315765
  },
  {
    "name": "Rajdevi Municipality Health Post, Chandhiya Tole",
    "province": "Madhesh",
    "district": "Rautahat",
    "address": "",
    "hospital_type": "clinic",
    "image_url": null,
    "source": "HDX_OSM",
    "latitude": 26.797724,
    "longitude": 85.317749
  },
  {
    "name": "Mudwalawa Health Post, Mudwalawa",
    "province": "Madhesh",
    "district": "Rautahat",
    "address": "",
    "hospital_type": "clinic",
    "image_url": null,
    "source": "HDX_OSM",
    "latitude": 26.768499,
    "longitude": 85.302948
  },
  {
    "name": "Uttam Health Care",
    "province": "Madhesh",
    "district": "Rautahat",
    "address": "",
    "hospital_type": "clinic",
    "image_url": null,
    "source": "HDX_OSM",
    "latitude": 26.757519,
    "longitude": 85.277847
  },
  {
    "name": "Aadharbhut Swastha Chauki",
    "province": "Madhesh",
    "district": "Rautahat",
    "address": "",
    "hospital_type": "clinic",
    "image_url": null,
    "source": "HDX_OSM",
    "latitude": 26.756887,
    "longitude": 85.27108
  },
  {
    "name": "Aadharbhut Swastha Sewa Kendra",
    "province": "Madhesh",
    "district": "Rautahat",
    "address": "",
    "hospital_type": "clinic",
    "image_url": null,
    "source": "HDX_OSM",
    "latitude": 26.762817,
    "longitude": 85.279388
  },
  {
    "name": "Aadharbhut Swath Kendra",
    "province": "Madhesh",
    "district": "Rautahat",
    "address": "",
    "hospital_type": "clinic",
    "image_url": null,
    "source": "HDX_OSM",
    "latitude": 26.76692,
    "longitude": 85.281486
  },
  {
    "name": "Gaur Private Hospital",
    "province": "Madhesh",
    "district": "Rautahat",
    "address": "",
    "hospital_type": "hospital",
    "image_url": null,
    "source": "HDX_OSM",
    "latitude": 26.764965,
    "longitude": 85.275016
  },
  {
    "name": "Aadharbhut Swasthya Sewa Kendra",
    "province": "Madhesh",
    "district": "Rautahat",
    "address": "",
    "hospital_type": "clinic",
    "image_url": null,
    "source": "HDX_OSM",
    "latitude": 26.775194,
    "longitude": 85.265709
  },
  {
    "name": "Aadharbhut Swasthya Kendra",
    "province": "Madhesh",
    "district": "Rautahat",
    "address": "",
    "hospital_type": "clinic",
    "image_url": null,
    "source": "HDX_OSM",
    "latitude": 26.780788,
    "longitude": 85.282677
  },
  {
    "name": "Birthing center, Gaur Health Post",
    "province": "Madhesh",
    "district": "Rautahat",
    "address": "",
    "hospital_type": "clinic",
    "image_url": null,
    "source": "HDX_OSM",
    "latitude": 26.77925,
    "longitude": 85.299257
  },
  {
    "name": "महाबौद्ध स्वास्थ्य केन्द्र",
    "province": "Madhesh",
    "district": "Siraha",
    "address": "",
    "hospital_type": "clinic",
    "image_url": null,
    "source": "HDX_OSM",
    "latitude": 26.762769,
    "longitude": 86.392781
  },
  {
    "name": "सहरी स्वास्थ्य केन्द्र",
    "province": "Madhesh",
    "district": "Siraha",
    "address": "",
    "hospital_type": "clinic",
    "image_url": null,
    "source": "HDX_OSM",
    "latitude": 26.805034,
    "longitude": 86.399397
  },
  {
    "name": "सगरमाथा हेल्थ पोलि क्लिनिक",
    "province": "Madhesh",
    "district": "Siraha",
    "address": "",
    "hospital_type": "clinic",
    "image_url": null,
    "source": "HDX_OSM",
    "latitude": 26.760691,
    "longitude": 86.392661
  },
  {
    "name": "फुलाका स्वास्थ्य केन्द्र",
    "province": "Madhesh",
    "district": "Siraha",
    "address": "",
    "hospital_type": "clinic",
    "image_url": null,
    "source": "HDX_OSM",
    "latitude": 26.748414,
    "longitude": 86.368238
  },
  {
    "name": "आर.के. मेडिसिटि अस्पताल",
    "province": "Madhesh",
    "district": "Siraha",
    "address": "",
    "hospital_type": "hospital",
    "image_url": null,
    "source": "HDX_OSM",
    "latitude": 26.770074,
    "longitude": 86.383418
  },
  {
    "name": "ग्रिन एप्पल स्वास्थ्य केन्द्र",
    "province": "Madhesh",
    "district": "Siraha",
    "address": "",
    "hospital_type": "clinic",
    "image_url": null,
    "source": "HDX_OSM",
    "latitude": 26.778839,
    "longitude": 86.364725
  },
  {
    "name": "जनशक्ति उपचार केन्द्र",
    "province": "Madhesh",
    "district": "Siraha",
    "address": "",
    "hospital_type": "clinic",
    "image_url": null,
    "source": "HDX_OSM",
    "latitude": 26.778443,
    "longitude": 86.365934
  },
  {
    "name": "नारायणपुर अस्पताल",
    "province": "Madhesh",
    "district": "Siraha",
    "address": "",
    "hospital_type": "hospital",
    "image_url": null,
    "source": "HDX_OSM",
    "latitude": 26.765483,
    "longitude": 86.389683
  },
  {
    "name": "श्रमजिवी केयर अस्पताल प्रा.लि",
    "province": "Madhesh",
    "district": "Siraha",
    "address": "",
    "hospital_type": "hospital",
    "image_url": null,
    "source": "HDX_OSM",
    "latitude": 26.748521,
    "longitude": 86.417709
  },
  {
    "name": "स्वस्थ्य चौकी हनुमाननगर",
    "province": "Madhesh",
    "district": "Siraha",
    "address": "",
    "hospital_type": "clinic",
    "image_url": null,
    "source": "HDX_OSM",
    "latitude": 26.738225,
    "longitude": 86.400445
  },
  {
    "name": "Friends Model Hospital",
    "province": "Madhesh",
    "district": "Siraha",
    "address": "",
    "hospital_type": "hospital",
    "image_url": null,
    "source": "HDX_OSM",
    "latitude": 26.709824,
    "longitude": 86.489349
  },
  {
    "name": "Sagarmatha Choudhary Eye Hospital",
    "province": "Madhesh",
    "district": "Siraha",
    "address": "",
    "hospital_type": "hospital",
    "image_url": null,
    "source": "HDX_OSM",
    "latitude": 26.708705,
    "longitude": 86.492229
  },
  {
    "name": "Swastha Chauki Dhorna",
    "province": "Madhesh",
    "district": "Siraha",
    "address": "",
    "hospital_type": "clinic",
    "image_url": null,
    "source": "HDX_OSM",
    "latitude": 26.780338,
    "longitude": 86.47657
  },
  {
    "name": "Sahari Swastha Kendra",
    "province": "Madhesh",
    "district": "Siraha",
    "address": "",
    "hospital_type": "clinic",
    "image_url": null,
    "source": "HDX_OSM",
    "latitude": 26.831682,
    "longitude": 86.487183
  },
  {
    "name": "Swastha Chauki Bhawanipur Kalabanjar",
    "province": "Madhesh",
    "district": "Siraha",
    "address": "",
    "hospital_type": "clinic",
    "image_url": null,
    "source": "HDX_OSM",
    "latitude": 26.685493,
    "longitude": 86.467049
  },
  {
    "name": "Swastha Chauki Gadhiya",
    "province": "Madhesh",
    "district": "Siraha",
    "address": "",
    "hospital_type": "clinic",
    "image_url": null,
    "source": "HDX_OSM",
    "latitude": 26.668932,
    "longitude": 86.481323
  },
  {
    "name": "Swastha Chauki Bhramhan Gorchadi",
    "province": "Madhesh",
    "district": "Siraha",
    "address": "",
    "hospital_type": "clinic",
    "image_url": null,
    "source": "HDX_OSM",
    "latitude": 26.696926,
    "longitude": 86.468498
  },
  {
    "name": "Chherapati Health Post",
    "province": "Madhesh",
    "district": "Siraha",
    "address": "",
    "hospital_type": "clinic",
    "image_url": null,
    "source": "HDX_OSM",
    "latitude": 26.677362,
    "longitude": 86.483444
  },
  {
    "name": "Swastha Chauki Govindpur",
    "province": "Madhesh",
    "district": "Siraha",
    "address": "",
    "hospital_type": "clinic",
    "image_url": null,
    "source": "HDX_OSM",
    "latitude": 26.759089,
    "longitude": 86.449196
  },
  {
    "name": "Rouniyar Janashewa Homeopathic Clinic",
    "province": "Madhesh",
    "district": "Siraha",
    "address": "",
    "hospital_type": "clinic",
    "image_url": null,
    "source": "HDX_OSM",
    "latitude": 26.722631,
    "longitude": 86.48401
  },
  {
    "name": "Swastha Chauki Bhadariya",
    "province": "Madhesh",
    "district": "Siraha",
    "address": "",
    "hospital_type": "clinic",
    "image_url": null,
    "source": "HDX_OSM",
    "latitude": 26.754417,
    "longitude": 86.480392
  },
  {
    "name": "Lahan Cancer Care Center",
    "province": "Madhesh",
    "district": "Siraha",
    "address": "",
    "hospital_type": "hospital",
    "image_url": null,
    "source": "HDX_OSM",
    "latitude": 26.719065,
    "longitude": 86.48024
  },
  {
    "name": "Ram Kumar Sarda Uma Parsad Murarka Ismarak Aspatal",
    "province": "Madhesh",
    "district": "Siraha",
    "address": "",
    "hospital_type": "clinic",
    "image_url": null,
    "source": "HDX_OSM",
    "latitude": 26.708832,
    "longitude": 86.493248
  },
  {
    "name": "Siswani Swastha Chauki",
    "province": "Madhesh",
    "district": "Siraha",
    "address": "",
    "hospital_type": "clinic",
    "image_url": null,
    "source": "HDX_OSM",
    "latitude": 26.705143,
    "longitude": 86.436546
  },
  {
    "name": "Padariya Swastha Chauki Lahan 12",
    "province": "Madhesh",
    "district": "Siraha",
    "address": "",
    "hospital_type": "clinic",
    "image_url": null,
    "source": "HDX_OSM",
    "latitude": 26.720989,
    "longitude": 86.452026
  },
  {
    "name": "Bastipur Swasta Chauki",
    "province": "Madhesh",
    "district": "Siraha",
    "address": "",
    "hospital_type": "clinic",
    "image_url": null,
    "source": "HDX_OSM",
    "latitude": 26.748234,
    "longitude": 86.457191
  },
  {
    "name": "Nagar Swastha Kendra",
    "province": "Madhesh",
    "district": "Siraha",
    "address": "",
    "hospital_type": "clinic",
    "image_url": null,
    "source": "HDX_OSM",
    "latitude": 26.707037,
    "longitude": 86.478943
  },
  {
    "name": "Lahan Polyclinic and Diagonostic Centre",
    "province": "Madhesh",
    "district": "Siraha",
    "address": "",
    "hospital_type": "clinic",
    "image_url": null,
    "source": "HDX_OSM",
    "latitude": 26.725992,
    "longitude": 86.48127
  },
  {
    "name": "स्वास्थचौकी (health post)",
    "province": "Lumbini",
    "district": "Nawalparasi",
    "address": "",
    "hospital_type": "hospital",
    "image_url": null,
    "source": "HDX_OSM",
    "latitude": 27.751178,
    "longitude": 84.28261
  },
  {
    "name": "Aurahi Health Post Aurahi",
    "province": "Madhesh",
    "district": "Sarlahi",
    "address": "",
    "hospital_type": "clinic",
    "image_url": null,
    "source": "HDX_OSM",
    "latitude": 26.897863,
    "longitude": 85.533585
  },
  {
    "name": "Health post Birthing Center",
    "province": "Madhesh",
    "district": "Sarlahi",
    "address": "",
    "hospital_type": "clinic",
    "image_url": null,
    "source": "HDX_OSM",
    "latitude": 26.888567,
    "longitude": 85.500366
  },
  {
    "name": "Padaria Health Post",
    "province": "Madhesh",
    "district": "Sarlahi",
    "address": "",
    "hospital_type": "clinic",
    "image_url": null,
    "source": "HDX_OSM",
    "latitude": 26.913168,
    "longitude": 85.503433
  },
  {
    "name": "Health Post and Community Center",
    "province": "Madhesh",
    "district": "Sarlahi",
    "address": "",
    "hospital_type": "clinic",
    "image_url": null,
    "source": "HDX_OSM",
    "latitude": 26.903813,
    "longitude": 85.4894
  },
  {
    "name": "Siktahan Health Post",
    "province": "Lumbini",
    "district": "Rupandehi",
    "address": "",
    "hospital_type": "clinic",
    "image_url": null,
    "source": "HDX_OSM",
    "latitude": 27.553257,
    "longitude": 83.550877
  },
  {
    "name": "Kripa Daignostic Laboratory",
    "province": "Lumbini",
    "district": "Rupandehi",
    "address": "",
    "hospital_type": "laboratory",
    "image_url": null,
    "source": "HDX_OSM",
    "latitude": 27.512011,
    "longitude": 83.454668
  },
  {
    "name": "Shivam Pathology",
    "province": "Lumbini",
    "district": "Rupandehi",
    "address": "",
    "hospital_type": "laboratory",
    "image_url": null,
    "source": "HDX_OSM",
    "latitude": 27.514749,
    "longitude": 83.453243
  },
  {
    "name": "Multistar Reference Path Lab",
    "province": "Lumbini",
    "district": "Rupandehi",
    "address": "",
    "hospital_type": "yes",
    "image_url": null,
    "source": "HDX_OSM",
    "latitude": 27.51533,
    "longitude": 83.453638
  },
  {
    "name": "Buddha Accupuncture Sewa",
    "province": "Lumbini",
    "district": "Rupandehi",
    "address": "",
    "hospital_type": "yes",
    "image_url": null,
    "source": "HDX_OSM",
    "latitude": 27.51387,
    "longitude": 83.454064
  },
  {
    "name": "Care Plus Diagnostics & pathology Lab",
    "province": "Lumbini",
    "district": "Rupandehi",
    "address": "",
    "hospital_type": "laboratory",
    "image_url": null,
    "source": "HDX_OSM",
    "latitude": 27.511932,
    "longitude": 83.45468
  },
  {
    "name": "National Path Lab",
    "province": "Lumbini",
    "district": "Rupandehi",
    "address": "",
    "hospital_type": "laboratory",
    "image_url": null,
    "source": "HDX_OSM",
    "latitude": 27.512542,
    "longitude": 83.454522
  },
  {
    "name": "Cordis Health Care Clinic",
    "province": "Lumbini",
    "district": "Rupandehi",
    "address": "",
    "hospital_type": "yes",
    "image_url": null,
    "source": "HDX_OSM",
    "latitude": 27.516638,
    "longitude": 83.453053
  },
  {
    "name": "Devdaha Swastha Chauki",
    "province": "Lumbini",
    "district": "Rupandehi",
    "address": "",
    "hospital_type": "clinic",
    "image_url": null,
    "source": "HDX_OSM",
    "latitude": 27.642412,
    "longitude": 83.596642
  },
  {
    "name": "नागरिक आरोग्य केन्द्र",
    "province": "Lumbini",
    "district": "Rupandehi",
    "address": "",
    "hospital_type": "clinic",
    "image_url": null,
    "source": "HDX_OSM",
    "latitude": 27.652552,
    "longitude": 83.53875
  },
  {
    "name": "Jaya Health Clinic P.V.T 1 Lalbandhi MP",
    "province": "Madhesh",
    "district": "Sarlahi",
    "address": "",
    "hospital_type": "clinic",
    "image_url": null,
    "source": "HDX_OSM",
    "latitude": 27.070732,
    "longitude": 85.586075
  },
  {
    "name": "Parwanipur Community Health Post 16 Lalbandhi MP",
    "province": "Madhesh",
    "district": "Sarlahi",
    "address": "",
    "hospital_type": "clinic",
    "image_url": null,
    "source": "HDX_OSM",
    "latitude": 27.085841,
    "longitude": 85.723491
  },
  {
    "name": "Oham Dental Clinic P.V.T 7 Lalbandhi MP",
    "province": "Madhesh",
    "district": "Sarlahi",
    "address": "",
    "hospital_type": "dentist",
    "image_url": null,
    "source": "HDX_OSM",
    "latitude": 27.053911,
    "longitude": 85.629982
  },
  {
    "name": "Lalbandhi Aadharbhut Health Care Center 2 Lalbandhi MP",
    "province": "Madhesh",
    "district": "Sarlahi",
    "address": "",
    "hospital_type": "clinic",
    "image_url": null,
    "source": "HDX_OSM",
    "latitude": 27.05125,
    "longitude": 85.586281
  },
  {
    "name": "Jutpani Primary Health Care Center 2 Lalbandhi MP",
    "province": "Madhesh",
    "district": "Sarlahi",
    "address": "",
    "hospital_type": "clinic",
    "image_url": null,
    "source": "HDX_OSM",
    "latitude": 27.054762,
    "longitude": 85.582901
  },
  {
    "name": "Netra Ganj Health Post 1 Lalbandhi MP",
    "province": "Madhesh",
    "district": "Sarlahi",
    "address": "",
    "hospital_type": "clinic",
    "image_url": null,
    "source": "HDX_OSM",
    "latitude": 27.065985,
    "longitude": 85.592827
  },
  {
    "name": "Ravi Dental Clinic 7 Lalbandhi MP",
    "province": "Madhesh",
    "district": "Sarlahi",
    "address": "",
    "hospital_type": "dentist",
    "image_url": null,
    "source": "HDX_OSM",
    "latitude": 27.054071,
    "longitude": 85.629257
  },
  {
    "name": "Bhawani Health Care P.V.T 1 Lalbandhi MP",
    "province": "Madhesh",
    "district": "Sarlahi",
    "address": "",
    "hospital_type": "clinic",
    "image_url": null,
    "source": "HDX_OSM",
    "latitude": 27.070501,
    "longitude": 85.586815
  },
  {
    "name": "Taksas Healthcare Private Clinic 7 Lalbandhi MP",
    "province": "Madhesh",
    "district": "Sarlahi",
    "address": "",
    "hospital_type": "clinic",
    "image_url": null,
    "source": "HDX_OSM",
    "latitude": 27.054127,
    "longitude": 85.631073
  },
  {
    "name": "Basic Health Post",
    "province": "Madhesh",
    "district": "Sarlahi",
    "address": "",
    "hospital_type": "clinic",
    "image_url": null,
    "source": "HDX_OSM",
    "latitude": 26.886227,
    "longitude": 85.510864
  },
  {
    "name": "Basic Health Center",
    "province": "Madhesh",
    "district": "Sarlahi",
    "address": "",
    "hospital_type": "clinic",
    "image_url": null,
    "source": "HDX_OSM",
    "latitude": 26.883177,
    "longitude": 85.495714
  },
  {
    "name": "Nagarik Arogya Service Center Belahi",
    "province": "Madhesh",
    "district": "Sarlahi",
    "address": "",
    "hospital_type": "clinic",
    "image_url": null,
    "source": "HDX_OSM",
    "latitude": 26.903643,
    "longitude": 85.489048
  },
  {
    "name": "Basic Health Unit",
    "province": "Madhesh",
    "district": "Sarlahi",
    "address": "",
    "hospital_type": "clinic",
    "image_url": null,
    "source": "HDX_OSM",
    "latitude": 26.893972,
    "longitude": 85.523216
  },
  {
    "name": "आधार्भुत स्वस्थ्य केन्द्र",
    "province": "Lumbini",
    "district": "Rupandehi",
    "address": "",
    "hospital_type": "clinic",
    "image_url": null,
    "source": "HDX_OSM",
    "latitude": 27.633955,
    "longitude": 83.559929
  },
  {
    "name": "आधारभुत स्वास्थ्य केन्द्र( वार्ड न-९)",
    "province": "Lumbini",
    "district": "Rupandehi",
    "address": "",
    "hospital_type": "clinic",
    "image_url": null,
    "source": "HDX_OSM",
    "latitude": 27.65612,
    "longitude": 83.573715
  },
  {
    "name": "शिवनगर आधारभुत स्वास्थ्य सेवा केन्द्र",
    "province": "Lumbini",
    "district": "Rupandehi",
    "address": "",
    "hospital_type": "clinic",
    "image_url": null,
    "source": "HDX_OSM",
    "latitude": 27.640735,
    "longitude": 83.313838
  },
  {
    "name": "Tenuhawa Health Post",
    "province": "Lumbini",
    "district": "Rupandehi",
    "address": "",
    "hospital_type": "clinic",
    "image_url": null,
    "source": "HDX_OSM",
    "latitude": 27.490432,
    "longitude": 83.243417
  },
  {
    "name": "Khudabagar Health post",
    "province": "Lumbini",
    "district": "Rupandehi",
    "address": "",
    "hospital_type": "clinic",
    "image_url": null,
    "source": "HDX_OSM",
    "latitude": 27.511977,
    "longitude": 83.311182
  },
  {
    "name": "Bhagwanpur Health Post",
    "province": "Lumbini",
    "district": "Rupandehi",
    "address": "",
    "hospital_type": "clinic",
    "image_url": null,
    "source": "HDX_OSM",
    "latitude": 27.446813,
    "longitude": 83.263391
  },
  {
    "name": "Aama Primary Health Centre",
    "province": "Lumbini",
    "district": "Rupandehi",
    "address": "",
    "hospital_type": "clinic",
    "image_url": null,
    "source": "HDX_OSM",
    "latitude": 27.414573,
    "longitude": 83.268475
  },
  {
    "name": "Dhiraj Pharmacy",
    "province": "Lumbini",
    "district": "Rupandehi",
    "address": "",
    "hospital_type": "clinic",
    "image_url": null,
    "source": "HDX_OSM",
    "latitude": 27.518009,
    "longitude": 83.332832
  },
  {
    "name": "Grishma Commnity Health Post 17 Lalbandhi MP",
    "province": "Madhesh",
    "district": "Sarlahi",
    "address": "",
    "hospital_type": "clinic",
    "image_url": null,
    "source": "HDX_OSM",
    "latitude": 27.034441,
    "longitude": 85.64772
  },
  {
    "name": "Lalbandi Community Health Care Center 7 Lalbandhi MP",
    "province": "Madhesh",
    "district": "Sarlahi",
    "address": "",
    "hospital_type": "clinic",
    "image_url": null,
    "source": "HDX_OSM",
    "latitude": 27.054884,
    "longitude": 85.628662
  },
  {
    "name": "Aayansh Prathamik Clinic Center",
    "province": "Madhesh",
    "district": "Sarlahi",
    "address": "",
    "hospital_type": "clinic",
    "image_url": null,
    "source": "HDX_OSM",
    "latitude": 27.040001,
    "longitude": 85.603416
  },
  {
    "name": "Jabidi Swasta Chauki 4 Lalbandhi MP",
    "province": "Madhesh",
    "district": "Sarlahi",
    "address": "",
    "hospital_type": "clinic",
    "image_url": null,
    "source": "HDX_OSM",
    "latitude": 27.035625,
    "longitude": 85.61792
  },
  {
    "name": "Nagar Swasthy Shahari Clinic 3 Lalbandhi MP",
    "province": "Madhesh",
    "district": "Sarlahi",
    "address": "",
    "hospital_type": "clinic",
    "image_url": null,
    "source": "HDX_OSM",
    "latitude": 27.020685,
    "longitude": 85.613098
  },
  {
    "name": "Anjali Policlini P.V.T 1 Lalbandhi MP",
    "province": "Madhesh",
    "district": "Sarlahi",
    "address": "",
    "hospital_type": "clinic",
    "image_url": null,
    "source": "HDX_OSM",
    "latitude": 27.070513,
    "longitude": 85.58625
  },
  {
    "name": "Janaki Health Care Center 8 Lalbandhi MP",
    "province": "Madhesh",
    "district": "Sarlahi",
    "address": "",
    "hospital_type": "clinic",
    "image_url": null,
    "source": "HDX_OSM",
    "latitude": 27.053053,
    "longitude": 85.632889
  },
  {
    "name": "Primari Health Clinic 11 Lalbandhi MP",
    "province": "Madhesh",
    "district": "Sarlahi",
    "address": "",
    "hospital_type": "clinic",
    "image_url": null,
    "source": "HDX_OSM",
    "latitude": 27.079828,
    "longitude": 85.641849
  },
  {
    "name": "Gaubal Maitri Hospital 7 Lalbandhi MP",
    "province": "Madhesh",
    "district": "Sarlahi",
    "address": "",
    "hospital_type": "hospital",
    "image_url": null,
    "source": "HDX_OSM",
    "latitude": 27.054416,
    "longitude": 85.629937
  },
  {
    "name": "Narayankhola Health Post 14 Lalbandhi MP",
    "province": "Madhesh",
    "district": "Sarlahi",
    "address": "",
    "hospital_type": "clinic",
    "image_url": null,
    "source": "HDX_OSM",
    "latitude": 27.147083,
    "longitude": 85.700378
  },
  {
    "name": "Sarlahi Health Care Nawalpur 1 Lalbandhi MP",
    "province": "Madhesh",
    "district": "Sarlahi",
    "address": "",
    "hospital_type": "clinic",
    "image_url": null,
    "source": "HDX_OSM",
    "latitude": 27.07094,
    "longitude": 85.58593
  },
  {
    "name": "Gadimai Hospital P.V.T 6 Lalbandhi MP",
    "province": "Madhesh",
    "district": "Sarlahi",
    "address": "",
    "hospital_type": "hospital",
    "image_url": null,
    "source": "HDX_OSM",
    "latitude": 27.051674,
    "longitude": 85.637589
  },
  {
    "name": "Anamika Health Care P.V.T 1 Lalbandhi MP",
    "province": "Madhesh",
    "district": "Sarlahi",
    "address": "",
    "hospital_type": "clinic",
    "image_url": null,
    "source": "HDX_OSM",
    "latitude": 27.070187,
    "longitude": 85.586594
  },
  {
    "name": "तोषि स्वास्थ्य चौकी",
    "province": "Sudurpashchim",
    "district": "Achham",
    "address": "",
    "hospital_type": "clinic",
    "image_url": null,
    "source": "HDX_OSM",
    "latitude": 28.987621,
    "longitude": 81.363396
  },
  {
    "name": "बाटुलासैन स्वास्थ्य चैकि बाटुलासैन",
    "province": "Sudurpashchim",
    "district": "Achham",
    "address": "",
    "hospital_type": "clinic",
    "image_url": null,
    "source": "HDX_OSM",
    "latitude": 29.177195,
    "longitude": 81.427111
  },
  {
    "name": "Geta Swasthye Chauki",
    "province": "Sudurpashchim",
    "district": "Kailali",
    "address": "",
    "hospital_type": "hospital",
    "image_url": null,
    "source": "HDX_OSM",
    "latitude": 28.779592,
    "longitude": 80.555718
  },
  {
    "name": "Universal College of Medical Sciences Teaching Hospital,Ranigaun",
    "province": "Lumbini",
    "district": "Rupandehi",
    "address": "",
    "hospital_type": "clinic",
    "image_url": null,
    "source": "HDX_OSM",
    "latitude": 27.487685,
    "longitude": 83.447049
  },
  {
    "name": "Universal College of Medical Sciences",
    "province": "Lumbini",
    "district": "Rupandehi",
    "address": "",
    "hospital_type": "hospital",
    "image_url": null,
    "source": "HDX_OSM",
    "latitude": 27.489121,
    "longitude": 83.448667
  },
  {
    "name": "Deurali Health Post",
    "province": "Gandaki",
    "district": "Gorkha",
    "address": "",
    "hospital_type": "clinic",
    "image_url": null,
    "source": "HDX_OSM",
    "latitude": 27.939939,
    "longitude": 84.523507
  },
  {
    "name": "Nareswor Health Post",
    "province": "Gandaki",
    "district": "Gorkha",
    "address": "",
    "hospital_type": "clinic",
    "image_url": null,
    "source": "HDX_OSM",
    "latitude": 28.025145,
    "longitude": 84.630288
  },
  {
    "name": "Kokhe Ale Health Center",
    "province": "Gandaki",
    "district": "Gorkha",
    "address": "",
    "hospital_type": "clinic",
    "image_url": null,
    "source": "HDX_OSM",
    "latitude": 28.025545,
    "longitude": 84.66828
  },
  {
    "name": "मुडकेचुला गाउँपालिका स्वास्थ्य शाखा, डोल्पा",
    "province": "Karnali",
    "district": "Dolpa",
    "address": "",
    "hospital_type": "clinic",
    "image_url": null,
    "source": "HDX_OSM",
    "latitude": 29.05395,
    "longitude": 82.517576
  },
  {
    "name": "सर्मी स्वास्थ्य चौकी, डोल्पा",
    "province": "Karnali",
    "district": "Dolpa",
    "address": "",
    "hospital_type": "clinic",
    "image_url": null,
    "source": "HDX_OSM",
    "latitude": 29.069238,
    "longitude": 82.472752
  },
  {
    "name": "गाडापारी सामुदायिक स्वास्थ्य चौकी, डोल्पा",
    "province": "Karnali",
    "district": "Dolpa",
    "address": "",
    "hospital_type": "clinic",
    "image_url": null,
    "source": "HDX_OSM",
    "latitude": 29.081264,
    "longitude": 82.488134
  },
  {
    "name": "सामुदायिक स्वास्थ्य इकाई",
    "province": "Karnali",
    "district": "Dolpa",
    "address": "",
    "hospital_type": "clinic",
    "image_url": null,
    "source": "HDX_OSM",
    "latitude": 28.914097,
    "longitude": 82.810712
  },
  {
    "name": "स्वास्थ्य सेवा कार्यालय, दुनई-डोल्पा",
    "province": "Karnali",
    "district": "Dolpa",
    "address": "",
    "hospital_type": "clinic",
    "image_url": null,
    "source": "HDX_OSM",
    "latitude": 28.955324,
    "longitude": 82.892887
  },
  {
    "name": "स्वास्थ्य चौकी कार्यालय परीला डोल्पा",
    "province": "Karnali",
    "district": "Dolpa",
    "address": "",
    "hospital_type": "clinic",
    "image_url": null,
    "source": "HDX_OSM",
    "latitude": 28.983399,
    "longitude": 82.899337
  },
  {
    "name": "Bright Smile Dental Clinic",
    "province": "Bagmati",
    "district": "Kathmandu",
    "address": "",
    "hospital_type": "dentist",
    "image_url": null,
    "source": "HDX_OSM",
    "latitude": 27.716132,
    "longitude": 85.324723
  },
  {
    "name": "Aadharbhut Healthcare",
    "province": "Lumbini",
    "district": "Nawalparasi",
    "address": "",
    "hospital_type": "clinic",
    "image_url": null,
    "source": "HDX_OSM",
    "latitude": 27.575588,
    "longitude": 84.101719
  },
  {
    "name": "Aadharbhut Health Post Center Kudhauli",
    "province": "Lumbini",
    "district": "Nawalparasi",
    "address": "",
    "hospital_type": "clinic",
    "image_url": null,
    "source": "HDX_OSM",
    "latitude": 27.657545,
    "longitude": 84.1735
  },
  {
    "name": "Aadharbhut Health Post",
    "province": "Lumbini",
    "district": "Nawalparasi",
    "address": "",
    "hospital_type": "clinic",
    "image_url": null,
    "source": "HDX_OSM",
    "latitude": 27.621431,
    "longitude": 84.125107
  },
  {
    "name": "Adharbhut Swasthya Sewa Kendra",
    "province": "Lumbini",
    "district": "Nawalparasi",
    "address": "",
    "hospital_type": "clinic",
    "image_url": null,
    "source": "HDX_OSM",
    "latitude": 27.626495,
    "longitude": 84.145409
  },
  {
    "name": "Kumarbarti Health Post",
    "province": "Lumbini",
    "district": "Nawalparasi",
    "address": "",
    "hospital_type": "clinic",
    "image_url": null,
    "source": "HDX_OSM",
    "latitude": 27.577982,
    "longitude": 84.087765
  },
  {
    "name": "Aadharbhut Health Center Dasghare",
    "province": "Lumbini",
    "district": "Nawalparasi",
    "address": "",
    "hospital_type": "clinic",
    "image_url": null,
    "source": "HDX_OSM",
    "latitude": 27.664165,
    "longitude": 84.120219
  },
  {
    "name": "Aadharbhut Health Center Subarna Tole",
    "province": "Lumbini",
    "district": "Nawalparasi",
    "address": "",
    "hospital_type": "clinic",
    "image_url": null,
    "source": "HDX_OSM",
    "latitude": 27.634744,
    "longitude": 84.123649
  },
  {
    "name": "Aadharbhut Health Centre Belchowk",
    "province": "Lumbini",
    "district": "Nawalparasi",
    "address": "",
    "hospital_type": "clinic",
    "image_url": null,
    "source": "HDX_OSM",
    "latitude": 27.655895,
    "longitude": 84.13147
  },
  {
    "name": "खोरमोर सामुदायिक शहरी स्वास्थ्य सेवा केन्द्र शितगङ्गा नगरपालिका-१४ खोरमोर अर्घाखाँची",
    "province": "Lumbini",
    "district": "Rupandehi",
    "address": "",
    "hospital_type": "hospital",
    "image_url": null,
    "source": "HDX_OSM",
    "latitude": 27.751823,
    "longitude": 83.237495
  },
  {
    "name": "मुसिवान स्वास्थ ईकाइ शितगङ्गा नगरपालिका-१३ मुसिवान",
    "province": "Lumbini",
    "district": "Kapilbastu",
    "address": "",
    "hospital_type": "hospital",
    "image_url": null,
    "source": "HDX_OSM",
    "latitude": 27.783941,
    "longitude": 83.132233
  },
  {
    "name": "हर्रे",
    "province": "",
    "district": "Arghakhanchi",
    "address": "",
    "hospital_type": "hospital",
    "image_url": null,
    "source": "HDX_OSM",
    "latitude": 27.838987,
    "longitude": 82.974968
  },
  {
    "name": "सिद्द्धारा स्वास्थ चौकी",
    "province": "",
    "district": "Arghakhanchi",
    "address": "",
    "hospital_type": "hospital",
    "image_url": null,
    "source": "HDX_OSM",
    "latitude": 27.857264,
    "longitude": 82.9729
  },
  {
    "name": "अर्घाखाँचि हस्पिटल प्रालि",
    "province": "",
    "district": "Arghakhanchi",
    "address": "",
    "hospital_type": "hospital",
    "image_url": null,
    "source": "HDX_OSM",
    "latitude": 27.977047,
    "longitude": 83.124077
  },
  {
    "name": "पणेना sth",
    "province": "",
    "district": "Arghakhanchi",
    "address": "",
    "hospital_type": "hospital",
    "image_url": null,
    "source": "HDX_OSM",
    "latitude": 27.87003,
    "longitude": 83.30273
  },
  {
    "name": "सामुदायिक स्वास्थ ईकाइ भर्तापुर",
    "province": "",
    "district": "Arghakhanchi",
    "address": "",
    "hospital_type": "hospital",
    "image_url": null,
    "source": "HDX_OSM",
    "latitude": 27.84308,
    "longitude": 83.21676
  },
  {
    "name": "ह्रराबोट",
    "province": "",
    "district": "Arghakhanchi",
    "address": "",
    "hospital_type": "hospital",
    "image_url": null,
    "source": "HDX_OSM",
    "latitude": 27.89691,
    "longitude": 83.29575
  },
  {
    "name": "Maidan Health post",
    "province": "",
    "district": "Arghakhanchi",
    "address": "",
    "hospital_type": "hospital",
    "image_url": null,
    "source": "HDX_OSM",
    "latitude": 27.90137,
    "longitude": 83.23891
  },
  {
    "name": "Patauti Health post",
    "province": "",
    "district": "Arghakhanchi",
    "address": "",
    "hospital_type": "hospital",
    "image_url": null,
    "source": "HDX_OSM",
    "latitude": 27.87941,
    "longitude": 83.24547
  },
  {
    "name": "पाली स्वास्थ्य चौकी पाणिनी 8",
    "province": "",
    "district": "Arghakhanchi",
    "address": "",
    "hospital_type": "hospital",
    "image_url": null,
    "source": "HDX_OSM",
    "latitude": 27.92734,
    "longitude": 83.22826
  },
  {
    "name": "गोखुङ्गा स्वास्थ्य चौकी मालारानी-९",
    "province": "",
    "district": "Arghakhanchi",
    "address": "",
    "hospital_type": "hospital",
    "image_url": null,
    "source": "HDX_OSM",
    "latitude": 28.08786,
    "longitude": 83.015
  },
  {
    "name": "मरेङ स्वास्थ्य चौकि",
    "province": "",
    "district": "Arghakhanchi",
    "address": "",
    "hospital_type": "hospital",
    "image_url": null,
    "source": "HDX_OSM",
    "latitude": 28.05034,
    "longitude": 83.19129
  },
  {
    "name": "खनदह स्वास्थ चौकी",
    "province": "",
    "district": "Arghakhanchi",
    "address": "",
    "hospital_type": "hospital",
    "image_url": null,
    "source": "HDX_OSM",
    "latitude": 28.05882,
    "longitude": 83.12608
  },
  {
    "name": "अाधारभूत स्वास्थ्य सेवा केन्द्र",
    "province": "Lumbini",
    "district": "Nawalparasi",
    "address": "",
    "hospital_type": "hospital",
    "image_url": null,
    "source": "HDX_OSM",
    "latitude": 27.599051,
    "longitude": 83.659035
  },
  {
    "name": "स्वाठी स्वास्थ्य चाैकी",
    "province": "Lumbini",
    "district": "Nawalparasi",
    "address": "",
    "hospital_type": "hospital",
    "image_url": null,
    "source": "HDX_OSM",
    "latitude": 27.567654,
    "longitude": 83.651871
  },
  {
    "name": "सामुदायिक स्वास्थ्य ईकाइ",
    "province": "Lumbini",
    "district": "Nawalparasi",
    "address": "",
    "hospital_type": "hospital",
    "image_url": null,
    "source": "HDX_OSM",
    "latitude": 27.49896,
    "longitude": 83.67337
  },
  {
    "name": "jagarnathpur prathamik kendra",
    "province": "Lumbini",
    "district": "Nawalparasi",
    "address": "",
    "hospital_type": "hospital",
    "image_url": null,
    "source": "HDX_OSM",
    "latitude": 27.468624,
    "longitude": 83.785652
  },
  {
    "name": "Baidauli health post",
    "province": "Lumbini",
    "district": "Nawalparasi",
    "address": "",
    "hospital_type": "hospital",
    "image_url": null,
    "source": "HDX_OSM",
    "latitude": 27.402618,
    "longitude": 83.771355
  },
  {
    "name": "guthisuryapura health post",
    "province": "Lumbini",
    "district": "Nawalparasi",
    "address": "",
    "hospital_type": "hospital",
    "image_url": null,
    "source": "HDX_OSM",
    "latitude": 27.423572,
    "longitude": 83.789444
  },
  {
    "name": "Kushma Health Post-Kushma",
    "province": "Lumbini",
    "district": "Nawalparasi",
    "address": "",
    "hospital_type": "hospital",
    "image_url": null,
    "source": "HDX_OSM",
    "latitude": 27.470152,
    "longitude": 83.686264
  },
  {
    "name": "Asharbhut swasthe kendra",
    "province": "Lumbini",
    "district": "Nawalparasi",
    "address": "",
    "hospital_type": "hospital",
    "image_url": null,
    "source": "HDX_OSM",
    "latitude": 27.446035,
    "longitude": 83.857819
  },
  {
    "name": "Nepal Pariwar Niyojan Sangh Palhinandan-1Rampurawa",
    "province": "Lumbini",
    "district": "Nawalparasi",
    "address": "",
    "hospital_type": "hospital",
    "image_url": null,
    "source": "HDX_OSM",
    "latitude": 27.437119,
    "longitude": 83.70092
  },
  {
    "name": "स्वास्थ्य चाैकि करेटि",
    "province": "Lumbini",
    "district": "Rolpa",
    "address": "",
    "hospital_type": "clinic",
    "image_url": null,
    "source": "HDX_OSM",
    "latitude": 28.27976,
    "longitude": 82.54335
  },
  {
    "name": "आधारभूत स्वास्थ्य केन्द्र",
    "province": "Lumbini",
    "district": "Rolpa",
    "address": "",
    "hospital_type": "clinic",
    "image_url": null,
    "source": "HDX_OSM",
    "latitude": 28.411066,
    "longitude": 82.383148
  },
  {
    "name": "Adhar Bhut Health Center Kukur Gare",
    "province": "Lumbini",
    "district": "Rolpa",
    "address": "",
    "hospital_type": "clinic",
    "image_url": null,
    "source": "HDX_OSM",
    "latitude": 28.403395,
    "longitude": 82.38298
  },
  {
    "name": "आधारभुत स्वास्थ्य केन्द्र",
    "province": "Lumbini",
    "district": "Rolpa",
    "address": "",
    "hospital_type": "clinic",
    "image_url": null,
    "source": "HDX_OSM",
    "latitude": 28.406103,
    "longitude": 82.479904
  },
  {
    "name": "स्वास्थ्य चौकी तालाबाङ्ग",
    "province": "Lumbini",
    "district": "Rolpa",
    "address": "",
    "hospital_type": "clinic",
    "image_url": null,
    "source": "HDX_OSM",
    "latitude": 28.429153,
    "longitude": 82.484741
  },
  {
    "name": "Samudaik Health Post",
    "province": "Lumbini",
    "district": "Rolpa",
    "address": "",
    "hospital_type": "clinic",
    "image_url": null,
    "source": "HDX_OSM",
    "latitude": 28.405434,
    "longitude": 82.825874
  },
  {
    "name": "Swasthya Chauki Gaam",
    "province": "Lumbini",
    "district": "Rolpa",
    "address": "",
    "hospital_type": "clinic",
    "image_url": null,
    "source": "HDX_OSM",
    "latitude": 28.363958,
    "longitude": 82.85833
  },
  {
    "name": "Samudayik Swasthya Ikae Kendra , Jelgung Gaam",
    "province": "Lumbini",
    "district": "Rolpa",
    "address": "",
    "hospital_type": "clinic",
    "image_url": null,
    "source": "HDX_OSM",
    "latitude": 28.37574,
    "longitude": 82.8854
  },
  {
    "name": "Aadharbhut Swasthya Sewa Kendra, Basa Dada",
    "province": "Lumbini",
    "district": "Rolpa",
    "address": "",
    "hospital_type": "clinic",
    "image_url": null,
    "source": "HDX_OSM",
    "latitude": 28.3829,
    "longitude": 82.87686
  },
  {
    "name": "जेल्बाङ स्वाथ्य चौकी",
    "province": "Lumbini",
    "district": "Rolpa",
    "address": "",
    "hospital_type": "clinic",
    "image_url": null,
    "source": "HDX_OSM",
    "latitude": 28.379828,
    "longitude": 82.743988
  },
  {
    "name": "सामुदायिक स्वास्थ्य इकाई भुमिकास्थान-०३थारपाईला",
    "province": "",
    "district": "Arghakhanchi",
    "address": "",
    "hospital_type": "hospital",
    "image_url": null,
    "source": "HDX_OSM",
    "latitude": 28.023216,
    "longitude": 83.05999
  },
  {
    "name": "आधारभुत स्वास्थ्य सेवा केन्द्र भुमिकास्थान-३ सिख्र",
    "province": "",
    "district": "Arghakhanchi",
    "address": "",
    "hospital_type": "hospital",
    "image_url": null,
    "source": "HDX_OSM",
    "latitude": 28.024038,
    "longitude": 83.037521
  },
  {
    "name": "नागरिक आरोग्य सेवा केन्द्र",
    "province": "",
    "district": "Arghakhanchi",
    "address": "",
    "hospital_type": "hospital",
    "image_url": null,
    "source": "HDX_OSM",
    "latitude": 27.973381,
    "longitude": 83.076859
  },
  {
    "name": "देउराली आधारभुत स्वास्थ केन्द्र",
    "province": "",
    "district": "Arghakhanchi",
    "address": "",
    "hospital_type": "hospital",
    "image_url": null,
    "source": "HDX_OSM",
    "latitude": 27.897566,
    "longitude": 83.024483
  },
  {
    "name": "खयरभट्टि शहरी स्वास्थ केन्द्र",
    "province": "Lumbini",
    "district": "Kapilbastu",
    "address": "",
    "hospital_type": "hospital",
    "image_url": null,
    "source": "HDX_OSM",
    "latitude": 27.746421,
    "longitude": 82.929796
  },
  {
    "name": "आधारभुत स्वास्थ केन्द्र",
    "province": "",
    "district": "Arghakhanchi",
    "address": "",
    "hospital_type": "hospital",
    "image_url": null,
    "source": "HDX_OSM",
    "latitude": 27.844122,
    "longitude": 82.787743
  },
  {
    "name": "किमडाडा स्वास्थ चौकी",
    "province": "",
    "district": "Arghakhanchi",
    "address": "",
    "hospital_type": "hospital",
    "image_url": null,
    "source": "HDX_OSM",
    "latitude": 27.994572,
    "longitude": 83.077721
  },
  {
    "name": "डिभर्ना आयुर्वेद औषधालाय",
    "province": "",
    "district": "Arghakhanchi",
    "address": "",
    "hospital_type": "hospital",
    "image_url": null,
    "source": "HDX_OSM",
    "latitude": 27.998058,
    "longitude": 83.152687
  },
  {
    "name": "झडि आधारभुत स्वास्थ केन्द्र",
    "province": "",
    "district": "Arghakhanchi",
    "address": "",
    "hospital_type": "hospital",
    "image_url": null,
    "source": "HDX_OSM",
    "latitude": 27.997082,
    "longitude": 83.153915
  },
  {
    "name": "डिभर्ना स्वास्थ चौकी",
    "province": "",
    "district": "Arghakhanchi",
    "address": "",
    "hospital_type": "hospital",
    "image_url": null,
    "source": "HDX_OSM",
    "latitude": 28.011019,
    "longitude": 83.147255
  },
  {
    "name": "अर्घाखाँची पोलिक्लिनिक",
    "province": "",
    "district": "Arghakhanchi",
    "address": "",
    "hospital_type": "hospital",
    "image_url": null,
    "source": "HDX_OSM",
    "latitude": 27.975516,
    "longitude": 83.126582
  },
  {
    "name": "बाँके ढेाडेनि शहरि स्वास्थ्य इकाई",
    "province": "",
    "district": "Arghakhanchi",
    "address": "",
    "hospital_type": "hospital",
    "image_url": null,
    "source": "HDX_OSM",
    "latitude": 27.80596,
    "longitude": 82.95652
  },
  {
    "name": "अर्घा स्वास्थ्य चैाकि",
    "province": "",
    "district": "Arghakhanchi",
    "address": "",
    "hospital_type": "hospital",
    "image_url": null,
    "source": "HDX_OSM",
    "latitude": 28.021589,
    "longitude": 83.098206
  },
  {
    "name": "गाउँ घर क्लनिक",
    "province": "",
    "district": "Arghakhanchi",
    "address": "",
    "hospital_type": "hospital",
    "image_url": null,
    "source": "HDX_OSM",
    "latitude": 27.946615,
    "longitude": 83.128204
  },
  {
    "name": "रमेश मेडिकल हल",
    "province": "",
    "district": "Arghakhanchi",
    "address": "",
    "hospital_type": "hospital",
    "image_url": null,
    "source": "HDX_OSM",
    "latitude": 27.974436,
    "longitude": 83.126419
  },
  {
    "name": "फुलपाति हंसपुर आधारभूत स्वास्थ्य सेवा केन्द्र",
    "province": "",
    "district": "Arghakhanchi",
    "address": "",
    "hospital_type": "hospital",
    "image_url": null,
    "source": "HDX_OSM",
    "latitude": 28.07809,
    "longitude": 83.0477
  },
  {
    "name": "बागि स्वास्थ्य चैाकि",
    "province": "",
    "district": "Arghakhanchi",
    "address": "",
    "hospital_type": "hospital",
    "image_url": null,
    "source": "HDX_OSM",
    "latitude": 28.04107,
    "longitude": 83.09048
  },
  {
    "name": "आधारभुत स्वास्थ सेवा केन्द्र दुन्दुरुक",
    "province": "",
    "district": "Arghakhanchi",
    "address": "",
    "hospital_type": "hospital",
    "image_url": null,
    "source": "HDX_OSM",
    "latitude": 27.952942,
    "longitude": 83.232918
  },
  {
    "name": "प्राथमिक स्वास्थ केन्द्र बल्कोट",
    "province": "",
    "district": "Arghakhanchi",
    "address": "",
    "hospital_type": "hospital",
    "image_url": null,
    "source": "HDX_OSM",
    "latitude": 27.96702,
    "longitude": 83.24118
  },
  {
    "name": "ठुलापोखरा स्वास्थ चौकी",
    "province": "",
    "district": "Arghakhanchi",
    "address": "",
    "hospital_type": "hospital",
    "image_url": null,
    "source": "HDX_OSM",
    "latitude": 28.00839,
    "longitude": 83.196831
  },
  {
    "name": "केरुङ्गा स्वास्थ्य चौकी",
    "province": "",
    "district": "Arghakhanchi",
    "address": "",
    "hospital_type": "hospital",
    "image_url": null,
    "source": "HDX_OSM",
    "latitude": 27.986765,
    "longitude": 83.22361
  },
  {
    "name": "अर्घातोस स्वास्थ्य चौकि",
    "province": "",
    "district": "Arghakhanchi",
    "address": "",
    "hospital_type": "hospital",
    "image_url": null,
    "source": "HDX_OSM",
    "latitude": 28.035463,
    "longitude": 83.195068
  },
  {
    "name": "भगवति स्वास्थ्य चौकि",
    "province": "",
    "district": "Arghakhanchi",
    "address": "",
    "hospital_type": "hospital",
    "image_url": null,
    "source": "HDX_OSM",
    "latitude": 28.040836,
    "longitude": 83.221855
  },
  {
    "name": "मथुरा आधारभुत स्वस्थ्य ईकाइ स.न.पा.-५ अर्घाखाँची",
    "province": "",
    "district": "Arghakhanchi",
    "address": "",
    "hospital_type": "hospital",
    "image_url": null,
    "source": "HDX_OSM",
    "latitude": 27.968597,
    "longitude": 83.189858
  },
  {
    "name": "sitapur sausty chauki",
    "province": "",
    "district": "Arghakhanchi",
    "address": "",
    "hospital_type": "hospital",
    "image_url": null,
    "source": "HDX_OSM",
    "latitude": 27.874874,
    "longitude": 83.1204
  },
  {
    "name": "प्राथमिक स्वास्थ्य केन्द्र शिनपा-३ठाडा",
    "province": "",
    "district": "Arghakhanchi",
    "address": "",
    "hospital_type": "hospital",
    "image_url": null,
    "source": "HDX_OSM",
    "latitude": 27.860899,
    "longitude": 83.093069
  },
  {
    "name": "धारपाहिला स्वास्थ चौकि",
    "province": "",
    "district": "Arghakhanchi",
    "address": "",
    "hospital_type": "hospital",
    "image_url": null,
    "source": "HDX_OSM",
    "latitude": 27.85927,
    "longitude": 83.039757
  },
  {
    "name": "चाबेनेटा सामुदायिक सहरी स्वास्थ्य केन्द्र शिनपा -११",
    "province": "Lumbini",
    "district": "Dang",
    "address": "",
    "hospital_type": "hospital",
    "image_url": null,
    "source": "HDX_OSM",
    "latitude": 27.793085,
    "longitude": 82.867569
  },
  {
    "name": "somani health post",
    "province": "Lumbini",
    "district": "Nawalparasi",
    "address": "",
    "hospital_type": "hospital",
    "image_url": null,
    "source": "HDX_OSM",
    "latitude": 27.444752,
    "longitude": 83.777817
  },
  {
    "name": "tilkpur health post",
    "province": "Lumbini",
    "district": "Nawalparasi",
    "address": "",
    "hospital_type": "hospital",
    "image_url": null,
    "source": "HDX_OSM",
    "latitude": 27.560131,
    "longitude": 83.733749
  },
  {
    "name": "Harpur Health Post-Palhinandan-2Harpur",
    "province": "Lumbini",
    "district": "Nawalparasi",
    "address": "",
    "hospital_type": "hospital",
    "image_url": null,
    "source": "HDX_OSM",
    "latitude": 27.443714,
    "longitude": 83.69101
  },
  {
    "name": "narsahi helth post",
    "province": "Lumbini",
    "district": "Nawalparasi",
    "address": "",
    "hospital_type": "hospital",
    "image_url": null,
    "source": "HDX_OSM",
    "latitude": 27.422311,
    "longitude": 83.849012
  },
  {
    "name": "sarawal swasthe chauki",
    "province": "Lumbini",
    "district": "Nawalparasi",
    "address": "",
    "hospital_type": "hospital",
    "image_url": null,
    "source": "HDX_OSM",
    "latitude": 27.504936,
    "longitude": 83.729347
  },
  {
    "name": "Aadharbhoot swasthya sewa kendra",
    "province": "Lumbini",
    "district": "Nawalparasi",
    "address": "",
    "hospital_type": "hospital",
    "image_url": null,
    "source": "HDX_OSM",
    "latitude": 27.539551,
    "longitude": 83.675209
  },
  {
    "name": "Thulo khairetwa swathye chauki",
    "province": "Lumbini",
    "district": "Nawalparasi",
    "address": "",
    "hospital_type": "hospital",
    "image_url": null,
    "source": "HDX_OSM",
    "latitude": 27.436739,
    "longitude": 83.7658
  },
  {
    "name": "Janata Clinic Palhinandan-2",
    "province": "Lumbini",
    "district": "Nawalparasi",
    "address": "",
    "hospital_type": "hospital",
    "image_url": null,
    "source": "HDX_OSM",
    "latitude": 27.441804,
    "longitude": 83.69367
  },
  {
    "name": "Germi health post",
    "province": "Lumbini",
    "district": "Nawalparasi",
    "address": "",
    "hospital_type": "hospital",
    "image_url": null,
    "source": "HDX_OSM",
    "latitude": 27.458708,
    "longitude": 83.653427
  },
  {
    "name": "Rampurawa Health Post Palhinandan-1Rampurawa",
    "province": "Lumbini",
    "district": "Nawalparasi",
    "address": "",
    "hospital_type": "hospital",
    "image_url": null,
    "source": "HDX_OSM",
    "latitude": 27.435085,
    "longitude": 83.701286
  },
  {
    "name": "Badachaur Health Post",
    "province": "Lumbini",
    "district": "Rolpa",
    "address": "",
    "hospital_type": "clinic",
    "image_url": null,
    "source": "HDX_OSM",
    "latitude": 28.261667,
    "longitude": 82.7677
  },
  {
    "name": "Pang Swasthya Kemdra",
    "province": "Lumbini",
    "district": "Rolpa",
    "address": "",
    "hospital_type": "clinic",
    "image_url": null,
    "source": "HDX_OSM",
    "latitude": 28.278568,
    "longitude": 82.849197
  },
  {
    "name": "गजुल स्वस्थ्य चौकि",
    "province": "Lumbini",
    "district": "Rolpa",
    "address": "",
    "hospital_type": "clinic",
    "image_url": null,
    "source": "HDX_OSM",
    "latitude": 28.294163,
    "longitude": 82.71064
  },
  {
    "name": "खुग्री स्वास्थ चौकि",
    "province": "Lumbini",
    "district": "Rolpa",
    "address": "",
    "hospital_type": "clinic",
    "image_url": null,
    "source": "HDX_OSM",
    "latitude": 28.2003,
    "longitude": 82.684845
  },
  {
    "name": "खुग्री स्वास्थ चौकी ब्रान्च गाउँ घर किल्निक",
    "province": "Lumbini",
    "district": "Rolpa",
    "address": "",
    "hospital_type": "clinic",
    "image_url": null,
    "source": "HDX_OSM",
    "latitude": 28.219416,
    "longitude": 82.648453
  },
  {
    "name": "गोमनपानी गाउघर किल्निक",
    "province": "Lumbini",
    "district": "Rolpa",
    "address": "",
    "hospital_type": "clinic",
    "image_url": null,
    "source": "HDX_OSM",
    "latitude": 28.24387,
    "longitude": 82.665321
  },
  {
    "name": "ईलाका स्वास्थ्य चौकी",
    "province": "Lumbini",
    "district": "Rolpa",
    "address": "",
    "hospital_type": "clinic",
    "image_url": null,
    "source": "HDX_OSM",
    "latitude": 28.206163,
    "longitude": 82.659645
  },
  {
    "name": "आधार भुत स्वास्थ्य केन्द्र",
    "province": "Lumbini",
    "district": "Rolpa",
    "address": "",
    "hospital_type": "clinic",
    "image_url": null,
    "source": "HDX_OSM",
    "latitude": 28.308357,
    "longitude": 82.718498
  },
  {
    "name": "स्वास्थ्य चाैकि उवा",
    "province": "Lumbini",
    "district": "Rolpa",
    "address": "",
    "hospital_type": "clinic",
    "image_url": null,
    "source": "HDX_OSM",
    "latitude": 28.431826,
    "longitude": 82.803241
  },
  {
    "name": "आधारभूत स्वास्थ्य केन्द्र थवाङ ४ घाेरावाङ",
    "province": "Lumbini",
    "district": "Rolpa",
    "address": "",
    "hospital_type": "clinic",
    "image_url": null,
    "source": "HDX_OSM",
    "latitude": 28.465738,
    "longitude": 82.786217
  },
  {
    "name": "सामुदायिक स्वास्थ्य ईकाइ केन्द्र",
    "province": "Lumbini",
    "district": "Rolpa",
    "address": "",
    "hospital_type": "clinic",
    "image_url": null,
    "source": "HDX_OSM",
    "latitude": 28.448311,
    "longitude": 82.670044
  },